[{"place":"Tel Aviv-Yafo, Israel","lon":34.7819,"lat":32.08532},{"place":"Tel Aviv-Yafo, Israel","lon":34.7819,"lat":32.08532},{"place":"Joinville, Brazil","lon":-48.847978,"lat":-26.301478},{"place":"Joinville, Brazil","lon":-48.847978,"lat":-26.301478},{"place":"Den Haag, Netherlands","lon":4.316776,"lat":52.076885},{"place":"ORTISEI, Italy","lon":11.671969,"lat":46.573456},{"place":"ORTISEI, Italy","lon":11.671969,"lat":46.573456},{"place":"Den Haag, Netherlands","lon":4.316776,"lat":52.076885},{"place":"SERRES, Greece","lon":23.54906,"lat":41.09063},{"place":"Ribeirão Preto, Brazil","lon":-47.808586,"lat":-21.179363},{"place":"Ribeirão Preto, Brazil","lon":-47.808586,"lat":-21.179363},{"place":"SERRES, Greece","lon":23.54906,"lat":41.09063},{"place":"Alexandroupoli, Greece","lon":25.874811,"lat":40.84517},{"place":"Carrara, Gold Coast, Australia","lon":153.371055,"lat":-28.020956},{"place":"Carrara, Gold Coast, Australia","lon":153.371055,"lat":-28.020956},{"place":"Alexandroupoli, Greece","lon":25.874811,"lat":40.84517},{"place":"Magaluf, Spain","lon":2.535537,"lat":39.50881},{"place":"Córdoba, Argentina","lon":-64.187394,"lat":-31.420469},{"place":"Córdoba, Argentina","lon":-64.187394,"lat":-31.420469},{"place":"Magaluf, Spain","lon":2.535537,"lat":39.50881},{"place":"Clemson, SC, USA","lon":-82.83755,"lat":34.68347},{"place":"Clemson, SC, USA","lon":-82.83755,"lat":34.68347},{"place":"IGOUMENITSA, Greece","lon":20.263632,"lat":39.500942},{"place":"IGOUMENITSA, Greece","lon":20.263632,"lat":39.500942},{"place":"Sant Just Desvern - Barcelona, Spain","lon":2.074248,"lat":41.369351},{"place":"Sant Just Desvern - Barcelona, Spain","lon":2.074248,"lat":41.369351},{"place":"Jackson, TN (Cancelled), USA","lon":-88.81939,"lat":35.61434},{"place":"Jackson, TN (Cancelled), USA","lon":-88.81939,"lat":35.61434},{"place":"Kosice, Slovakia","lon":21.256809,"lat":48.727455},{"place":"Kosice, Slovakia","lon":21.256809,"lat":48.727455},{"place":"Castellon (Cancelled), Spain","lon":-0.037735,"lat":39.986035},{"place":"Castellon (Cancelled), Spain","lon":-0.037735,"lat":39.986035},{"place":"Istambul, Turkiye","lon":28.966219,"lat":41.009198},{"place":"Istambul, Turkiye","lon":28.966219,"lat":41.009198},{"place":"Natanya, Israel","lon":34.858288,"lat":32.32812},{"place":"Natanya, Israel","lon":34.858288,"lat":32.32812},{"place":"Lincoln, NE, USA","lon":-96.70119,"lat":40.809193},{"place":"Lincoln, NE, USA","lon":-96.70119,"lat":40.809193},{"place":"Greystones, Ireland","lon":-6.062679,"lat":53.144604},{"place":"Greystones, Ireland","lon":-6.062679,"lat":53.144604},{"place":"Villeneuve d'Ascq, France","lon":3.131085,"lat":50.61965},{"place":"Villeneuve d'Ascq, France","lon":3.131085,"lat":50.61965},{"place":"La CoruñA, Spain","lon":-8.401512,"lat":43.369846},{"place":"La CoruñA, Spain","lon":-8.401512,"lat":43.369846},{"place":"Miami, FL, USA","lon":-80.1919,"lat":25.773357},{"place":"Miami, FL, USA","lon":-80.1919,"lat":25.773357},{"place":"ILIOUPOLIS-ATHENS, Greece","lon":23.729275,"lat":37.97757},{"place":"ILIOUPOLIS-ATHENS, Greece","lon":23.729275,"lat":37.97757},{"place":"Näsbypark, Sweden","lon":17.675409,"lat":64.964875},{"place":"Näsbypark, Sweden","lon":17.675409,"lat":64.964875},{"place":"Huamantla, Mexico","lon":-97.922202,"lat":19.313035},{"place":"Huamantla, Mexico","lon":-97.922202,"lat":19.313035},{"place":"Canovelles - Barcelona, Spain","lon":2.282065,"lat":41.6165},{"place":"Canovelles - Barcelona, Spain","lon":2.282065,"lat":41.6165},{"place":"Joué-lès-Tours, France","lon":0.662776,"lat":47.35102},{"place":"Joué-lès-Tours, France","lon":0.662776,"lat":47.35102},{"place":"Chisisnau, Moldova","lon":28.837374,"lat":47.02416},{"place":"Chisisnau, Moldova","lon":28.837374,"lat":47.02416},{"place":"Nogent-sur-Marne, France","lon":2.485151,"lat":48.837334},{"place":"Nogent-sur-Marne, France","lon":2.485151,"lat":48.837334},{"place":"Passau, Germany","lon":13.460946,"lat":48.574356},{"place":"Passau, Germany","lon":13.460946,"lat":48.574356},{"place":"San Rafael, CA, USA","lon":-122.52839,"lat":37.972157},{"place":"San Rafael, CA, USA","lon":-122.52839,"lat":37.972157},{"place":"Chalkida, Greece","lon":23.59226,"lat":38.464054},{"place":"Chalkida, Greece","lon":23.59226,"lat":38.464054},{"place":"SINGAPORE, Singapore","lon":103.840943,"lat":1.288799},{"place":"SINGAPORE, Singapore","lon":103.840943,"lat":1.288799},{"place":"Vyshkovo, Ukraine","lon":25.508366,"lat":42.874166},{"place":"Vyshkovo, Ukraine","lon":25.508366,"lat":42.874166},{"place":"Leme, Brazil","lon":-47.385824,"lat":-22.184276},{"place":"Leme, Brazil","lon":-47.385824,"lat":-22.184276},{"place":"Spisska Nova Ves, Slovakia","lon":20.568373,"lat":48.943666},{"place":"Spisska Nova Ves, Slovakia","lon":20.568373,"lat":48.943666},{"place":"Santarém, Portugal","lon":-8.685158,"lat":39.236744},{"place":"Santarém, Portugal","lon":-8.685158,"lat":39.236744},{"place":"Polykastro, Greece","lon":22.570047,"lat":40.99645},{"place":"Polykastro, Greece","lon":22.570047,"lat":40.99645},{"place":"Agno, Switzerland","lon":8.899388,"lat":45.996895},{"place":"Agno, Switzerland","lon":8.899388,"lat":45.996895},{"place":"Burswood, Australia","lon":115.895607,"lat":-31.959235},{"place":"Burswood, Australia","lon":115.895607,"lat":-31.959235},{"place":"Saint-Valery en Caux, France","lon":0.710877,"lat":49.859795},{"place":"Saint-Valery en Caux, France","lon":0.710877,"lat":49.859795},{"place":"Lyon, France","lon":4.832619,"lat":45.766106},{"place":"Lyon, France","lon":4.832619,"lat":45.766106},{"place":"Dinard, France","lon":-2.055437,"lat":48.634747},{"place":"Dinard, France","lon":-2.055437,"lat":48.634747},{"place":"Aldershot, Great Britain","lon":-0.765111,"lat":51.24852},{"place":"Aldershot, Great Britain","lon":-0.765111,"lat":51.24852},{"place":"VALLADOLID, Spain","lon":-4.726678,"lat":41.652332},{"place":"VALLADOLID, Spain","lon":-4.726678,"lat":41.652332},{"place":"Mesagne, Italy","lon":17.809593,"lat":40.560204},{"place":"Mesagne, Italy","lon":17.809593,"lat":40.560204},{"place":"TRIESTE, Italy","lon":13.772238,"lat":45.650043},{"place":"TRIESTE, Italy","lon":13.772238,"lat":45.650043},{"place":"Vadu Lui Voda, Moldova","lon":29.08015,"lat":47.087486},{"place":"Vadu Lui Voda, Moldova","lon":29.08015,"lat":47.087486},{"place":"Malmö, Sweden","lon":13.001223,"lat":55.60456},{"place":"Malmö, Sweden","lon":13.001223,"lat":55.60456},{"place":"Wanfercée-Baulet, Belgium","lon":4.588948,"lat":50.47194},{"place":"Wanfercée-Baulet, Belgium","lon":4.588948,"lat":50.47194},{"place":"Germany, Germany","lon":12.437765,"lat":51.330419},{"place":"Germany, Germany","lon":12.437765,"lat":51.330419},{"place":"Cary, NC, USA","lon":-78.781166,"lat":35.78999},{"place":"Cary, NC, USA","lon":-78.781166,"lat":35.78999},{"place":"Linz, Austria","lon":14.284805,"lat":48.305813},{"place":"Linz, Austria","lon":14.284805,"lat":48.305813},{"place":"Focsani, Romania","lon":27.187082,"lat":45.69688},{"place":"Focsani, Romania","lon":27.187082,"lat":45.69688},{"place":"Hamburg, Germany","lon":10.000654,"lat":53.550341},{"place":"Hamburg, Germany","lon":10.000654,"lat":53.550341},{"place":"Sapporo, Japan (Cancelled), Japan","lon":141.353263,"lat":43.055572},{"place":"Sapporo, Japan (Cancelled), Japan","lon":141.353263,"lat":43.055572},{"place":"Slovenske Konjice, Slovenia","lon":15.422497,"lat":46.337306},{"place":"Slovenske Konjice, Slovenia","lon":15.422497,"lat":46.337306},{"place":"Chacabuco, Argentina","lon":-60.470719,"lat":-34.642469},{"place":"Chacabuco, Argentina","lon":-60.470719,"lat":-34.642469},{"place":"Ridderkerk, Netherlands","lon":4.599886,"lat":51.870556},{"place":"Ridderkerk, Netherlands","lon":4.599886,"lat":51.870556},{"place":"Kaspi (Cancelled), Georgia","lon":44.418664,"lat":41.92459},{"place":"Kaspi (Cancelled), Georgia","lon":44.418664,"lat":41.92459},{"place":"Soon, Norway","lon":8.804821,"lat":61.248333},{"place":"Soon, Norway","lon":8.804821,"lat":61.248333},{"place":"Rogaska Slatina, Slovenia","lon":15.638437,"lat":46.23299},{"place":"Rogaska Slatina, Slovenia","lon":15.638437,"lat":46.23299},{"place":"Pully, Switzerland","lon":6.661985,"lat":46.511177},{"place":"Pully, Switzerland","lon":6.661985,"lat":46.511177},{"place":"Pilar, Argentina","lon":-58.911872,"lat":-34.456939},{"place":"Pilar, Argentina","lon":-58.911872,"lat":-34.456939},{"place":"GPT Eindhoven, Netherlands","lon":5.480267,"lat":51.43773},{"place":"GPT Eindhoven, Netherlands","lon":5.480267,"lat":51.43773},{"place":"Køge, Denmark","lon":12.182748,"lat":55.456657},{"place":"Køge, Denmark","lon":12.182748,"lat":55.456657},{"place":"177 Colinton Road Edinburgh, Great Britain","lon":-3.23418,"lat":55.92294},{"place":"177 Colinton Road Edinburgh, Great Britain","lon":-3.23418,"lat":55.92294},{"place":"Gran Canaria - Maspalomas, Spain","lon":-15.5925,"lat":27.958611},{"place":"Gran Canaria - Maspalomas, Spain","lon":-15.5925,"lat":27.958611},{"place":"Cap D'Agde, France","lon":3.511705,"lat":43.284824},{"place":"Cap D'Agde, France","lon":3.511705,"lat":43.284824},{"place":"Brezice, Slovenia","lon":15.593086,"lat":45.90387},{"place":"Brezice, Slovenia","lon":15.593086,"lat":45.90387},{"place":"Mamaia-Constanta, Romania","lon":28.624863,"lat":44.234924},{"place":"Mamaia-Constanta, Romania","lon":28.624863,"lat":44.234924},{"place":"Segovia, Spain","lon":-4.121359,"lat":40.948875},{"place":"Segovia, Spain","lon":-4.121359,"lat":40.948875},{"place":"Szczawno-Zdroj, Poland","lon":16.25153,"lat":50.800799},{"place":"Szczawno-Zdroj, Poland","lon":16.25153,"lat":50.800799},{"place":"Figueira da Foz, Portugal","lon":-8.863923,"lat":40.149933},{"place":"Figueira da Foz, Portugal","lon":-8.863923,"lat":40.149933},{"place":"Vitoria - Gasteiz, Spain","lon":-2.673151,"lat":42.847042},{"place":"Vitoria - Gasteiz, Spain","lon":-2.673151,"lat":42.847042},{"place":"Arada, Romania","lon":21.319634,"lat":46.175379},{"place":"Arada, Romania","lon":21.319634,"lat":46.175379},{"place":"Lujan (Moved from Buenos Aires), Argentina","lon":-59.117086,"lat":-34.566362},{"place":"Lujan (Moved from Buenos Aires), Argentina","lon":-59.117086,"lat":-34.566362},{"place":"Campina, Romania","lon":25.73504,"lat":45.123917},{"place":"Campina, Romania","lon":25.73504,"lat":45.123917},{"place":"Bissy-Chambéry, France","lon":5.88819,"lat":45.58173},{"place":"Bissy-Chambéry, France","lon":5.88819,"lat":45.58173},{"place":"Campulung-Arges, Romania","lon":25.04515,"lat":45.271755},{"place":"Campulung-Arges, Romania","lon":25.04515,"lat":45.271755},{"place":"Tsaghadzor, Armenia","lon":44.720157,"lat":40.533547},{"place":"Tsaghadzor, Armenia","lon":44.720157,"lat":40.533547},{"place":"ROME, Italy","lon":12.476713,"lat":41.899986},{"place":"ROME, Italy","lon":12.476713,"lat":41.899986},{"place":"Kääriku, 67309 Valga County, Estonia","lon":26.39286,"lat":58.004326},{"place":"Kääriku, 67309 Valga County, Estonia","lon":26.39286,"lat":58.004326},{"place":"Périgueux, France","lon":0.720619,"lat":45.184132},{"place":"Périgueux, France","lon":0.720619,"lat":45.184132},{"place":"Wien, Alt-Erlaa, Austria","lon":14.570296,"lat":48.199379},{"place":"Wien, Alt-Erlaa, Austria","lon":14.570296,"lat":48.199379},{"place":"Ricany (Cancelled), Czechia","lon":14.657234,"lat":49.9916},{"place":"Ricany (Cancelled), Czechia","lon":14.657234,"lat":49.9916},{"place":"Tsaghkadzor, Armenia","lon":44.720157,"lat":40.533547},{"place":"Tsaghkadzor, Armenia","lon":44.720157,"lat":40.533547},{"place":"Maringa, Brazil","lon":-51.936446,"lat":-23.42085},{"place":"Maringa, Brazil","lon":-51.936446,"lat":-23.42085},{"place":"ČAkovec, Croatia","lon":16.438461,"lat":46.38983},{"place":"ČAkovec, Croatia","lon":16.438461,"lat":46.38983},{"place":"Slobozia, Romania","lon":27.36089,"lat":44.56215},{"place":"Slobozia, Romania","lon":27.36089,"lat":44.56215},{"place":"Montemor-o-Novo, Portugal","lon":-8.21582,"lat":38.64743},{"place":"Montemor-o-Novo, Portugal","lon":-8.21582,"lat":38.64743},{"place":"Plas Coch Road. Wrexham, Great Britain","lon":-3.006027,"lat":53.055688},{"place":"Plas Coch Road. Wrexham, Great Britain","lon":-3.006027,"lat":53.055688},{"place":"CASERTA, Italy","lon":14.331337,"lat":41.072727},{"place":"CASERTA, Italy","lon":14.331337,"lat":41.072727},{"place":"Maria Lanzendorf, Austria","lon":16.42295,"lat":48.10019},{"place":"Maria Lanzendorf, Austria","lon":16.42295,"lat":48.10019},{"place":"Cork, Ireland","lon":-8.465467,"lat":51.897077},{"place":"Cork, Ireland","lon":-8.465467,"lat":51.897077},{"place":"Thessaloniki, Greece","lon":22.944689,"lat":40.633987},{"place":"Thessaloniki, Greece","lon":22.944689,"lat":40.633987},{"place":"Belfast, Ireland","lon":-5.930276,"lat":54.596441},{"place":"Belfast, Ireland","lon":-5.930276,"lat":54.596441},{"place":"Sumter, USA","lon":-80.34156,"lat":33.92174},{"place":"Sumter, USA","lon":-80.34156,"lat":33.92174},{"place":"Marathon, Greece","lon":23.958847,"lat":38.15858},{"place":"Marathon, Greece","lon":23.958847,"lat":38.15858},{"place":"Rio Claro, Brazil","lon":-47.560504,"lat":-22.411002},{"place":"Rio Claro, Brazil","lon":-47.560504,"lat":-22.411002},{"place":"Heraklio, Greece","lon":25.132599,"lat":35.339375},{"place":"Heraklio, Greece","lon":25.132599,"lat":35.339375},{"place":"Klagenfurt, Austria","lon":14.306923,"lat":46.62522},{"place":"Helsinki, Finland","lon":24.941822,"lat":60.167507},{"place":"Helsinki, Finland","lon":24.941822,"lat":60.167507},{"place":"Klagenfurt, Austria","lon":14.306923,"lat":46.62522},{"place":"Grodzisk Mazowiecki, Poland","lon":20.621374,"lat":52.105446},{"place":"Grodzisk Mazowiecki, Poland","lon":20.621374,"lat":52.105446},{"place":"Montemor-o, Portugal","lon":-7.835875,"lat":37.052794},{"place":"Montemor-o, Portugal","lon":-7.835875,"lat":37.052794},{"place":"Grodzisk Mazowiecki , Poland","lon":20.621374,"lat":52.105446},{"place":"Grodzisk Mazowiecki , Poland","lon":20.621374,"lat":52.105446},{"place":"BRESCIA, Italy","lon":10.219558,"lat":45.539703},{"place":"BRESCIA, Italy","lon":10.219558,"lat":45.539703},{"place":"Badhoevedorp, Netherlands","lon":4.780329,"lat":52.336018},{"place":"Badhoevedorp, Netherlands","lon":4.780329,"lat":52.336018},{"place":"Fukui, Japan","lon":136.217617,"lat":36.065185},{"place":"Fukui, Japan","lon":136.217617,"lat":36.065185},{"place":"GRADO, Italy","lon":13.384539,"lat":45.67674},{"place":"GRADO, Italy","lon":13.384539,"lat":45.67674},{"place":"Toyama, Japan","lon":137.212842,"lat":36.694513},{"place":"Toyama, Japan","lon":137.212842,"lat":36.694513},{"place":"Main Draw - Wavertree Sports Park, Wellington Road, Great Britain","lon":-3.227461,"lat":50.97856},{"place":"Main Draw - Wavertree Sports Park, Wellington Road, Great Britain","lon":-3.227461,"lat":50.97856},{"place":"Bethany Beach, USA","lon":-75.0572,"lat":38.538383},{"place":"Bethany Beach, USA","lon":-75.0572,"lat":38.538383},{"place":"Bieruńska 78, Poland","lon":18.964746,"lat":49.992029},{"place":"Bieruńska 78, Poland","lon":18.964746,"lat":49.992029},{"place":"Villach-Warmbad, Austria","lon":13.845381,"lat":46.612095},{"place":"Villach-Warmbad, Austria","lon":13.845381,"lat":46.612095},{"place":"Altamura, Italy","lon":16.553131,"lat":40.82713},{"place":"Altamura, Italy","lon":16.553131,"lat":40.82713},{"place":"Kottingbrunn, Austria","lon":16.228294,"lat":47.951244},{"place":"Nova Gorica, Slovenia","lon":13.647471,"lat":45.958055},{"place":"Nova Gorica, Slovenia","lon":13.647471,"lat":45.958055},{"place":"Kottingbrunn, Austria","lon":16.228294,"lat":47.951244},{"place":"Rafina, Greece","lon":24.00699,"lat":38.02031},{"place":"Rafina, Greece","lon":24.00699,"lat":38.02031},{"place":"Leszno, Poland","lon":16.573608,"lat":51.84305},{"place":"Leszno, Poland","lon":16.573608,"lat":51.84305},{"place":"Manacor, Spain","lon":3.210062,"lat":39.569073},{"place":"Manacor, Spain","lon":3.210062,"lat":39.569073},{"place":"Villena, Spain","lon":-0.86499,"lat":38.631847},{"place":"Villena, Spain","lon":-0.86499,"lat":38.631847},{"place":"PLATJA D'ARO, Spain","lon":3.068929,"lat":41.81794},{"place":"PLATJA D'ARO, Spain","lon":3.068929,"lat":41.81794},{"place":"Grodisk Mazowiecki, Poland","lon":20.621374,"lat":52.105446},{"place":"Grodisk Mazowiecki, Poland","lon":20.621374,"lat":52.105446},{"place":"Båstad, Sweden","lon":12.861391,"lat":56.427013},{"place":"Båstad, Sweden","lon":12.861391,"lat":56.427013},{"place":"Ancient Olympia, Greece","lon":25.942976,"lat":38.24721},{"place":"Ancient Olympia, Greece","lon":25.942976,"lat":38.24721},{"place":"Zephyrhills, USA","lon":-82.18167,"lat":28.233582},{"place":"Zephyrhills, USA","lon":-82.18167,"lat":28.233582},{"place":"Larnaka, Cyprus","lon":33.624577,"lat":34.92239},{"place":"Larnaka, Cyprus","lon":33.624577,"lat":34.92239},{"place":"Fukuoka city, Japan","lon":130.405135,"lat":33.589733},{"place":"Fukuoka city, Japan","lon":130.405135,"lat":33.589733},{"place":"Alexandroupolis, Greece","lon":25.874811,"lat":40.84517},{"place":"Alexandroupolis, Greece","lon":25.874811,"lat":40.84517},{"place":"Lopota, Georgia","lon":-2.966019,"lat":53.395242},{"place":"Lopota, Georgia","lon":-2.966019,"lat":53.395242},{"place":"Schaan, Liechtenstein","lon":9.510312,"lat":47.16634},{"place":"Schaan, Liechtenstein","lon":9.510312,"lat":47.16634},{"place":"Telde, Spain","lon":-15.416629,"lat":27.99698},{"place":"Telde, Spain","lon":-15.416629,"lat":27.99698},{"place":"OEIRAS, Portugal","lon":-9.308493,"lat":38.693264},{"place":"OEIRAS, Portugal","lon":-9.308493,"lat":38.693264},{"place":"Winterthur, Switzerland","lon":8.72794,"lat":47.498177},{"place":"Winterthur, Switzerland","lon":8.72794,"lat":47.498177},{"place":"CHIASSO, Seseglio, Switzerland","lon":9.030236,"lat":45.833508},{"place":"CHIASSO, Seseglio, Switzerland","lon":9.030236,"lat":45.833508},{"place":"Mount Pleasant, SC, USA","lon":-79.86196,"lat":32.79438},{"place":"Mount Pleasant, SC, USA","lon":-79.86196,"lat":32.79438},{"place":"Parma, Italy","lon":10.327724,"lat":44.80219},{"place":"Parma, Italy","lon":10.327724,"lat":44.80219},{"place":"Florianópolis, Brazil","lon":-48.549753,"lat":-27.596791},{"place":"Florianópolis, Brazil","lon":-48.549753,"lat":-27.596791},{"place":"ILIOUPOLI, Greece","lon":23.756346,"lat":37.93241},{"place":"ILIOUPOLI, Greece","lon":23.756346,"lat":37.93241},{"place":"LA BISBAL D'EMPORDÀ, Spain","lon":3.038473,"lat":41.959694},{"place":"LA BISBAL D'EMPORDÀ, Spain","lon":3.038473,"lat":41.959694},{"place":"Marbella, Spain","lon":-4.886694,"lat":36.50932},{"place":"Marbella, Spain","lon":-4.886694,"lat":36.50932},{"place":"CORINTH, Greece","lon":22.932586,"lat":37.938168},{"place":"CORINTH, Greece","lon":22.932586,"lat":37.938168},{"place":"Pontevedra, Spain","lon":-8.644912,"lat":42.432796},{"place":"Terrassa, Spain","lon":2.009467,"lat":41.56224},{"place":"Terrassa, Spain","lon":2.009467,"lat":41.56224},{"place":"Pontevedra, Spain","lon":-8.644912,"lat":42.432796},{"place":"VERIA (MAKROCHORI IMATHIAS), Greece","lon":22.205149,"lat":40.52367},{"place":"VERIA (MAKROCHORI IMATHIAS), Greece","lon":22.205149,"lat":40.52367},{"place":"A Coruna, Spain","lon":-8.401512,"lat":43.369846},{"place":"A Coruna, Spain","lon":-8.401512,"lat":43.369846},{"place":"Brossard, Canada","lon":-73.46846,"lat":45.4561},{"place":"Brossard, Canada","lon":-73.46846,"lat":45.4561},{"place":"Warsaw, Poland","lon":21.016317,"lat":52.23072},{"place":"Warsaw, Poland","lon":21.016317,"lat":52.23072},{"place":"SOLARINO, Italy","lon":15.119793,"lat":37.100754},{"place":"SOLARINO, Italy","lon":15.119793,"lat":37.100754},{"place":"Aesh/Alzette, Luxembourg","lon":6.087814,"lat":49.770628},{"place":"Aesh/Alzette, Luxembourg","lon":6.087814,"lat":49.770628},{"place":"TUCUMAN, Argentina","lon":-65.203813,"lat":-26.83037},{"place":"TUCUMAN, Argentina","lon":-65.203813,"lat":-26.83037},{"place":"La Nucia, Spain","lon":-0.125965,"lat":38.614277},{"place":"La Nucia, Spain","lon":-0.125965,"lat":38.614277},{"place":"Vienna, Austria","lon":16.372504,"lat":48.208354},{"place":"Vienna, Austria","lon":16.372504,"lat":48.208354},{"place":"Aguascalientes, Mexico","lon":-102.296592,"lat":21.880596},{"place":"Aguascalientes, Mexico","lon":-102.296592,"lat":21.880596},{"place":"Velletri, Italy","lon":12.777215,"lat":41.68756},{"place":"Velletri, Italy","lon":12.777215,"lat":41.68756},{"place":"Wesley Chapel, USA","lon":-82.328156,"lat":28.240484},{"place":"Wesley Chapel, USA","lon":-82.328156,"lat":28.240484},{"place":"Zams, Austria","lon":10.589427,"lat":47.157562},{"place":"Zams, Austria","lon":10.589427,"lat":47.157562},{"place":"Le Gosier (Guadeloupe), France","lon":-61.494037,"lat":16.206234},{"place":"Le Gosier (Guadeloupe), France","lon":-61.494037,"lat":16.206234},{"place":"Renningen/Rutesheim, Germany","lon":8.946124,"lat":48.808277},{"place":"Renningen/Rutesheim, Germany","lon":8.946124,"lat":48.808277},{"place":"Fort-de-France (MARTINIQUE), France","lon":-61.071275,"lat":14.603556},{"place":"Fort-de-France (MARTINIQUE), France","lon":-61.071275,"lat":14.603556},{"place":"ANTALYA, Turkiye","lon":30.70745,"lat":36.887333},{"place":"ANTALYA, Turkiye","lon":30.70745,"lat":36.887333},{"place":"Nancy, France","lon":6.181829,"lat":48.694298},{"place":"Nancy, France","lon":6.181829,"lat":48.694298},{"place":"Vichy, France","lon":3.424706,"lat":46.125134},{"place":"Vichy, France","lon":3.424706,"lat":46.125134},{"place":"Bern, Switzerland","lon":7.443638,"lat":46.948715},{"place":"Bern, Switzerland","lon":7.443638,"lat":46.948715},{"place":"Champaign, IL (Cancelled), USA","lon":-88.24266,"lat":40.11631},{"place":"Champaign, IL (Cancelled), USA","lon":-88.24266,"lat":40.11631},{"place":"ĐAkovo, Croatia","lon":18.409388,"lat":45.309837},{"place":"ĐAkovo, Croatia","lon":18.409388,"lat":45.309837},{"place":"Nasbypark, Sweden","lon":17.675409,"lat":64.964875},{"place":"Nasbypark, Sweden","lon":17.675409,"lat":64.964875},{"place":"Yereva, Armenia","lon":44.512617,"lat":40.177625},{"place":"Yereva, Armenia","lon":44.512617,"lat":40.177625},{"place":"Atlanta, GA (CANCELLED), USA","lon":-84.389854,"lat":33.7508},{"place":"Atlanta, GA (CANCELLED), USA","lon":-84.389854,"lat":33.7508},{"place":"Vadul lu Voda, Moldova","lon":29.08015,"lat":47.087486},{"place":"Vadul lu Voda, Moldova","lon":29.08015,"lat":47.087486},{"place":"Fuerth, Germany","lon":10.98973,"lat":49.477271},{"place":"Fuerth, Germany","lon":10.98973,"lat":49.477271},{"place":"Ostrava, Czechia","lon":18.289057,"lat":49.835354},{"place":"Ostrava, Czechia","lon":18.289057,"lat":49.835354},{"place":"Reading, Great Britain","lon":-0.972165,"lat":51.455647},{"place":"Jackson, TN, USA","lon":-88.81939,"lat":35.61434},{"place":"Jackson, TN, USA","lon":-88.81939,"lat":35.61434},{"place":"Reading, Great Britain","lon":-0.972165,"lat":51.455647},{"place":"Zilina, Slovakia","lon":18.740925,"lat":49.223885},{"place":"Zilina, Slovakia","lon":18.740925,"lat":49.223885},{"place":"Raanana (Cancelled), Israel","lon":34.87611,"lat":32.180256},{"place":"Raanana (Cancelled), Israel","lon":34.87611,"lat":32.180256},{"place":"Stobreč, Croatia","lon":16.522401,"lat":43.502427},{"place":"Stobreč, Croatia","lon":16.522401,"lat":43.502427},{"place":"Cherbourg En Cotentin (Moved to 16 October), France","lon":-1.623819,"lat":49.639427},{"place":"Cherbourg En Cotentin (Moved to 16 October), France","lon":-1.623819,"lat":49.639427},{"place":"Slobozia, Romania","lon":27.36089,"lat":44.56215},{"place":"Slobozia, Romania","lon":27.36089,"lat":44.56215},{"place":"Fredrikstad, Norway","lon":10.938404,"lat":59.212574},{"place":"Fredrikstad, Norway","lon":10.938404,"lat":59.212574},{"place":"Fiano Romano, Italy","lon":12.592715,"lat":42.17063},{"place":"Fiano Romano, Italy","lon":12.592715,"lat":42.17063},{"place":"Marnes-La-Coquette, France","lon":2.178582,"lat":48.830555},{"place":"Marnes-La-Coquette, France","lon":2.178582,"lat":48.830555},{"place":"Mugla, Turkiye","lon":28.364044,"lat":37.21527},{"place":"Mugla, Turkiye","lon":28.364044,"lat":37.21527},{"place":"Gyeongsan (CANCELLED), Korea, Rep.","lon":128.742536,"lat":35.824058},{"place":"Gyeongsan (CANCELLED), Korea, Rep.","lon":128.742536,"lat":35.824058},{"place":"Wielkopolska, Poland","lon":23.455345,"lat":51.164429},{"place":"Wielkopolska, Poland","lon":23.455345,"lat":51.164429},{"place":"Denizli, Turkiye","lon":29.097034,"lat":37.782326},{"place":"Denizli, Turkiye","lon":29.097034,"lat":37.782326},{"place":"Maspalomas Gran Canaria, Spain","lon":-15.5925,"lat":27.958611},{"place":"Maspalomas Gran Canaria, Spain","lon":-15.5925,"lat":27.958611},{"place":"Zvolen, Slovakia","lon":19.126575,"lat":48.576653},{"place":"Zvolen, Slovakia","lon":19.126575,"lat":48.576653},{"place":"Tbilisi (Previously Kaspi), Georgia","lon":44.80145,"lat":41.693459},{"place":"Tbilisi (Previously Kaspi), Georgia","lon":44.80145,"lat":41.693459},{"place":"Mamaia,Constanta, Romania","lon":28.624863,"lat":44.234924},{"place":"Mamaia,Constanta, Romania","lon":28.624863,"lat":44.234924},{"place":"Koge, Denmark","lon":12.182748,"lat":55.456657},{"place":"Koge, Denmark","lon":12.182748,"lat":55.456657},{"place":"Roehampton, London, Great Britain","lon":-0.240176,"lat":51.449693},{"place":"Roehampton, London, Great Britain","lon":-0.240176,"lat":51.449693},{"place":"Celje, Slovenia","lon":15.261683,"lat":46.229389},{"place":"Celje, Slovenia","lon":15.261683,"lat":46.229389},{"place":"Tsakhadzor, Armenia","lon":44.720157,"lat":40.533547},{"place":"Tsakhadzor, Armenia","lon":44.720157,"lat":40.533547},{"place":"Rosario-Santa Fe, Argentina","lon":-60.657573,"lat":-32.960293},{"place":"Rosario-Santa Fe, Argentina","lon":-60.657573,"lat":-32.960293},{"place":"Craiova, Romania","lon":23.799028,"lat":44.317547},{"place":"Craiova, Romania","lon":23.799028,"lat":44.317547},{"place":"Prokuplje (MOVED to Kursumlijska Banja), Serbia","lon":21.253859,"lat":43.05688},{"place":"Prokuplje (MOVED to Kursumlijska Banja), Serbia","lon":21.253859,"lat":43.05688},{"place":"Cluj, Romania","lon":23.589954,"lat":46.769379},{"place":"Cluj, Romania","lon":23.589954,"lat":46.769379},{"place":"Prokuplje (MOVED TO Kursumlijska Banja), Serbia","lon":21.253859,"lat":43.05688},{"place":"Prokuplje (MOVED TO Kursumlijska Banja), Serbia","lon":21.253859,"lat":43.05688},{"place":"Tolentino, Italy","lon":13.28451,"lat":43.208946},{"place":"Tolentino, Italy","lon":13.28451,"lat":43.208946},{"place":"Mogyorod, Hungary","lon":19.240541,"lat":47.59756},{"place":"Mogyorod, Hungary","lon":19.240541,"lat":47.59756},{"place":"KääRiku, Estonia","lon":26.39286,"lat":58.004326},{"place":"KääRiku, Estonia","lon":26.39286,"lat":58.004326},{"place":"Denain [CANCELLED], France","lon":3.393492,"lat":50.3269},{"place":"Denain [CANCELLED], France","lon":3.393492,"lat":50.3269},{"place":"MöDling, Austria","lon":16.284246,"lat":48.085945},{"place":"MöDling, Austria","lon":16.284246,"lat":48.085945},{"place":"Vadu lui Voda, Moldova","lon":29.08015,"lat":47.087486},{"place":"Vadu lui Voda, Moldova","lon":29.08015,"lat":47.087486},{"place":"Tauste-Zaragoza, Spain","lon":-0.949115,"lat":41.569129},{"place":"Tauste-Zaragoza, Spain","lon":-0.949115,"lat":41.569129},{"place":"Arta, Greece","lon":20.987017,"lat":39.161777},{"place":"Arta, Greece","lon":20.987017,"lat":39.161777},{"place":"Kranjska Gora, Slovenia","lon":13.784396,"lat":46.485132},{"place":"Kranjska Gora, Slovenia","lon":13.784396,"lat":46.485132},{"place":"Bielsko-BiałA, Poland","lon":19.046837,"lat":49.823215},{"place":"Bielsko-BiałA, Poland","lon":19.046837,"lat":49.823215},{"place":"Jakarta (CANCELLED), Indonesia","lon":106.827183,"lat":-6.175394},{"place":"Jakarta (CANCELLED), Indonesia","lon":106.827183,"lat":-6.175394},{"place":"Gurb - Vic (Barcelona), Spain","lon":2.252151,"lat":41.932482},{"place":"Gurb - Vic (Barcelona), Spain","lon":2.252151,"lat":41.932482},{"place":"Kocevje, Slovenia","lon":14.85527,"lat":45.643027},{"place":"Kocevje, Slovenia","lon":14.85527,"lat":45.643027},{"place":"La Nucia (CANCELLED), Spain","lon":-0.125965,"lat":38.614277},{"place":"La Nucia (CANCELLED), Spain","lon":-0.125965,"lat":38.614277},{"place":"Veli LošInj, Croatia","lon":14.501717,"lat":44.521069},{"place":"Veli LošInj, Croatia","lon":14.501717,"lat":44.521069},{"place":"Yecla, Spain","lon":-1.11587,"lat":38.61328},{"place":"Yecla, Spain","lon":-1.11587,"lat":38.61328},{"place":"Thessalonik, Greece","lon":22.944689,"lat":40.633987},{"place":"Thessalonik, Greece","lon":22.944689,"lat":40.633987},{"place":"Huntsville, USA","lon":-86.585304,"lat":34.729538},{"place":"Huntsville, USA","lon":-86.585304,"lat":34.729538},{"place":"Feld am See, Austria","lon":13.745681,"lat":46.775112},{"place":"Feld am See, Austria","lon":13.745681,"lat":46.775112},{"place":"Niederzier, Germany","lon":6.465122,"lat":50.883427},{"place":"Niederzier, Germany","lon":6.465122,"lat":50.883427},{"place":"Atlanta Athletic Club (CANCELLED), USA","lon":-78.423599,"lat":35.693239},{"place":"Atlanta Athletic Club (CANCELLED), USA","lon":-78.423599,"lat":35.693239},{"place":"Chambon-Sur-Lignon, France","lon":4.302439,"lat":45.06039},{"place":"Chambon-Sur-Lignon, France","lon":4.302439,"lat":45.06039},{"place":"Svedala, Sweden","lon":13.236707,"lat":55.508694},{"place":"Svedala, Sweden","lon":13.236707,"lat":55.508694},{"place":"Poznan, Poland","lon":16.93123,"lat":52.407333},{"place":"Poznan, Poland","lon":16.93123,"lat":52.407333},{"place":"Bonita Springs, USA","lon":-81.778946,"lat":26.338736},{"place":"Bonita Springs, USA","lon":-81.778946,"lat":26.338736},{"place":"Reggio Emilia, Italy","lon":10.630386,"lat":44.69745},{"place":"Reggio Emilia, Italy","lon":10.630386,"lat":44.69745},{"place":"Zephyrhills, FL, USA","lon":-82.18167,"lat":28.233582},{"place":"Zephyrhills, FL, USA","lon":-82.18167,"lat":28.233582},{"place":"Neudörfl, Austria","lon":16.29786,"lat":47.796061},{"place":"Neudörfl, Austria","lon":16.29786,"lat":47.796061},{"place":"Feucherolles, France","lon":1.974202,"lat":48.874523},{"place":"Feucherolles, France","lon":1.974202,"lat":48.874523},{"place":"Bujumbura, Burundi","lon":29.352243,"lat":-3.365051},{"place":"Bujumbura, Burundi","lon":29.352243,"lat":-3.365051},{"place":"Breclav, Czechia","lon":16.881907,"lat":48.759174},{"place":"Breclav, Czechia","lon":16.881907,"lat":48.759174},{"place":"Pszczyna, Poland","lon":18.943947,"lat":49.977715},{"place":"Pszczyna, Poland","lon":18.943947,"lat":49.977715},{"place":"Sopo, Colombia","lon":-73.941666,"lat":4.907803},{"place":"Sopo, Colombia","lon":-73.941666,"lat":4.907803},{"place":"Lleida, Spain","lon":0.619437,"lat":41.618828},{"place":"Lleida, Spain","lon":0.619437,"lat":41.618828},{"place":"Bielsko Biala, Poland","lon":19.046837,"lat":49.823215},{"place":"Bielsko Biala, Poland","lon":19.046837,"lat":49.823215},{"place":"Heraklion, Greece","lon":25.132599,"lat":35.339375},{"place":"Heraklion, Greece","lon":25.132599,"lat":35.339375},{"place":"Spring, TX, USA","lon":-95.41871,"lat":30.079535},{"place":"Spring, TX, USA","lon":-95.41871,"lat":30.079535},{"place":"Gent, Belgium","lon":3.725012,"lat":51.053829},{"place":"Gent, Belgium","lon":3.725012,"lat":51.053829},{"place":"Roquebrune-Cap-Martin, France","lon":7.456426,"lat":43.764496},{"place":"Roquebrune-Cap-Martin, France","lon":7.456426,"lat":43.764496},{"place":"Heerenveen, Netherlands","lon":5.924176,"lat":52.96026},{"place":"Heerenveen, Netherlands","lon":5.924176,"lat":52.96026},{"place":"Perak Lawn Tennis Association, Malaysia","lon":101.090024,"lat":4.598682},{"place":"Perak Lawn Tennis Association, Malaysia","lon":101.090024,"lat":4.598682},{"place":"Kreuzlingen, Switzerland","lon":9.170841,"lat":47.644626},{"place":"Kreuzlingen, Switzerland","lon":9.170841,"lat":47.644626},{"place":"Wesley Chapel, FL (CANCELLED), USA","lon":-82.328156,"lat":28.240484},{"place":"Wesley Chapel, FL (CANCELLED), USA","lon":-82.328156,"lat":28.240484},{"place":"Escaldes, Andorra","lon":2.696003,"lat":43.22327},{"place":"Escaldes, Andorra","lon":2.696003,"lat":43.22327},{"place":"Varna, Bulgaria","lon":27.914743,"lat":43.206253},{"place":"Varna, Bulgaria","lon":27.914743,"lat":43.206253},{"place":"Rome, GA, USA","lon":-85.17168,"lat":34.254658},{"place":"Rome, GA, USA","lon":-85.17168,"lat":34.254658},{"place":"Marbella - MáLaga, Spain","lon":-4.611549,"lat":36.733677},{"place":"Marbella - MáLaga, Spain","lon":-4.611549,"lat":36.733677},{"place":"Oberpullendorf (CANCELLED), Austria","lon":16.504753,"lat":47.50297},{"place":"Oberpullendorf (CANCELLED), Austria","lon":16.504753,"lat":47.50297},{"place":"Frankfurt Am Main, Germany","lon":8.683012,"lat":50.110596},{"place":"Frankfurt Am Main, Germany","lon":8.683012,"lat":50.110596},{"place":"Petange (Moved to 21 Nov), Luxembourg","lon":5.877107,"lat":49.556446},{"place":"Petange (Moved to 21 Nov), Luxembourg","lon":5.877107,"lat":49.556446},{"place":"Van, Turkiye","lon":43.394657,"lat":38.500847},{"place":"Van, Turkiye","lon":43.394657,"lat":38.500847},{"place":"Saint Etienne, France","lon":4.390536,"lat":45.4351},{"place":"Saint Etienne, France","lon":4.390536,"lat":45.4351},{"place":"Shkoder, Albania","lon":19.51373,"lat":42.06696},{"place":"Shkoder, Albania","lon":19.51373,"lat":42.06696},{"place":"Lincoln, NE (CANCELLED), USA","lon":-96.70119,"lat":40.809193},{"place":"Lincoln, NE (CANCELLED), USA","lon":-96.70119,"lat":40.809193},{"place":"Erzincan, Turkiye","lon":39.490852,"lat":39.746803},{"place":"Erzincan, Turkiye","lon":39.490852,"lat":39.746803},{"place":"Villeneuve-Loubet, France","lon":7.121911,"lat":43.657425},{"place":"Villeneuve-Loubet, France","lon":7.121911,"lat":43.657425},{"place":"Cartagena (CANCELLED), Colombia","lon":-75.54878,"lat":10.422792},{"place":"Cartagena (CANCELLED), Colombia","lon":-75.54878,"lat":10.422792},{"place":"Otura - Granada, Spain","lon":-3.581879,"lat":37.102227},{"place":"Otura - Granada, Spain","lon":-3.581879,"lat":37.102227},{"place":"Cherbourg En Cotentin, France","lon":-1.623819,"lat":49.639427},{"place":"Cherbourg En Cotentin, France","lon":-1.623819,"lat":49.639427},{"place":"Praha, Czechia","lon":14.422954,"lat":50.08584},{"place":"Praha, Czechia","lon":14.422954,"lat":50.08584},{"place":"Quinta do Lago, Portugal","lon":-7.094792,"lat":42.946533},{"place":"Quinta do Lago, Portugal","lon":-7.094792,"lat":42.946533},{"place":"Ajaccio (SARROLA CARCOPINO), France","lon":8.842432,"lat":42.02823},{"place":"Ajaccio (SARROLA CARCOPINO), France","lon":8.842432,"lat":42.02823},{"place":"Baza, Spain","lon":-3.469139,"lat":37.991882},{"place":"Baza, Spain","lon":-3.469139,"lat":37.991882},{"place":"Malahide, Ireland","lon":-6.153619,"lat":53.450737},{"place":"Malahide, Ireland","lon":-6.153619,"lat":53.450737},{"place":"Grevenmacher, Luxembourg","lon":6.442727,"lat":49.67832},{"place":"Grevenmacher, Luxembourg","lon":6.442727,"lat":49.67832},{"place":"Eldorado, Misiones, Argentina","lon":-54.626244,"lat":-26.403881},{"place":"Eldorado, Misiones, Argentina","lon":-54.626244,"lat":-26.403881},{"place":"Hampshire, Great Britain","lon":-1.316242,"lat":51.063354},{"place":"Hampshire, Great Britain","lon":-1.316242,"lat":51.063354},{"place":"Rhodes, Greece","lon":28.227915,"lat":36.44352},{"place":"Rhodes, Greece","lon":28.227915,"lat":36.44352},{"place":"San Sebastian, Spain","lon":-1.984026,"lat":43.32282},{"place":"San Sebastian, Spain","lon":-1.984026,"lat":43.32282},{"place":"Saint-Valéry-en-Caux, France","lon":0.710877,"lat":49.859795},{"place":"Saint-Valéry-en-Caux, France","lon":0.710877,"lat":49.859795},{"place":"Prerov, Czechia","lon":17.451511,"lat":49.45419},{"place":"Prerov, Czechia","lon":17.451511,"lat":49.45419},{"place":"Saint-Palais-sur-Mer, France","lon":-1.088783,"lat":45.64319},{"place":"Saint-Palais-sur-Mer, France","lon":-1.088783,"lat":45.64319},{"place":"Mol, Belgium","lon":5.115527,"lat":51.184042},{"place":"Mol, Belgium","lon":5.115527,"lat":51.184042},{"place":"Aix-en-Provence (CANCELLED), France","lon":5.447729,"lat":43.528618},{"place":"Aix-en-Provence (CANCELLED), France","lon":5.447729,"lat":43.528618},{"place":"Carrigaline, Ireland","lon":-8.391936,"lat":51.81477},{"place":"Carrigaline, Ireland","lon":-8.391936,"lat":51.81477},{"place":"Aprilia (CANCELLED), Italy","lon":12.648317,"lat":41.593815},{"place":"Aprilia (CANCELLED), Italy","lon":12.648317,"lat":41.593815},{"place":"Derby, Repton, Great Britain","lon":-1.550555,"lat":52.839738},{"place":"Derby, Repton, Great Britain","lon":-1.550555,"lat":52.839738},{"place":"La Baule-Escoublac, France","lon":-2.391655,"lat":47.28616},{"place":"La Baule-Escoublac, France","lon":-2.391655,"lat":47.28616},{"place":"Bronx, NY, USA","lon":-73.841275,"lat":40.92098},{"place":"Bronx, NY, USA","lon":-73.841275,"lat":40.92098},{"place":"MUGLA, Turkiye","lon":28.364044,"lat":37.21527},{"place":"MUGLA, Turkiye","lon":28.364044,"lat":37.21527},{"place":"Waterford, Ireland","lon":-7.111908,"lat":52.261},{"place":"San Bartolome de Tirajana, Spain","lon":-15.573342,"lat":27.925468},{"place":"Waterford, Ireland","lon":-7.111908,"lat":52.261},{"place":"San Bartolome de Tirajana, Spain","lon":-15.573342,"lat":27.925468},{"place":"Otočec, Slovenia","lon":15.222154,"lat":45.833633},{"place":"Otočec, Slovenia","lon":15.222154,"lat":45.833633},{"place":"Jackson, TN (CANCELLED), USA","lon":-88.81939,"lat":35.61434},{"place":"Jackson, TN (CANCELLED), USA","lon":-88.81939,"lat":35.61434},{"place":"Bydgoszcz, Poland","lon":18.000923,"lat":53.121468},{"place":"Bydgoszcz, Poland","lon":18.000923,"lat":53.121468},{"place":"Foxhills, Great Britain","lon":0.165675,"lat":51.033949},{"place":"Foxhills, Great Britain","lon":0.165675,"lat":51.033949},{"place":"Ramat Ha Sharon, Israel","lon":34.838486,"lat":32.145855},{"place":"Ramat Ha Sharon, Israel","lon":34.838486,"lat":32.145855},{"place":"VierumäKi, Finland","lon":25.930548,"lat":61.106174},{"place":"VierumäKi, Finland","lon":25.930548,"lat":61.106174},{"place":"San Bartolome (Gran Canaria), Spain","lon":-13.673788,"lat":28.922164},{"place":"San Bartolome (Gran Canaria), Spain","lon":-13.673788,"lat":28.922164},{"place":"Roma, Italy","lon":12.476713,"lat":41.899986},{"place":"Roma, Italy","lon":12.476713,"lat":41.899986},{"place":"El Espinar/Segovia, Spain","lon":-4.246335,"lat":40.718723},{"place":"El Espinar/Segovia, Spain","lon":-4.246335,"lat":40.718723},{"place":"Pleven, Bulgaria","lon":24.618132,"lat":43.409477},{"place":"Pleven, Bulgaria","lon":24.618132,"lat":43.409477},{"place":"Portimão, Portugal","lon":-8.536365,"lat":37.13733},{"place":"Portimão, Portugal","lon":-8.536365,"lat":37.13733},{"place":"Don Benito, Spain","lon":-5.86287,"lat":38.954384},{"place":"Don Benito, Spain","lon":-5.86287,"lat":38.954384},{"place":"BirkerøD, Denmark","lon":12.43122,"lat":55.840675},{"place":"BirkerøD, Denmark","lon":12.43122,"lat":55.840675},{"place":"Sezze (CANCELLED), Italy","lon":13.05993,"lat":41.499786},{"place":"Sezze (CANCELLED), Italy","lon":13.05993,"lat":41.499786},{"place":"Waco, TX (CANCELLED), USA","lon":-97.147064,"lat":31.54915},{"place":"Waco, TX (CANCELLED), USA","lon":-97.147064,"lat":31.54915},{"place":"Jurmalas Parks 5, Latvia","lon":20.995399,"lat":56.503341},{"place":"Jurmalas Parks 5, Latvia","lon":20.995399,"lat":56.503341},{"place":"Roehampton, Great Britain","lon":-0.240176,"lat":51.449693},{"place":"Colorado Springs, CO, USA","lon":-104.82188,"lat":38.83242},{"place":"Colorado Springs, CO, USA","lon":-104.82188,"lat":38.83242},{"place":"Roehampton, Great Britain","lon":-0.240176,"lat":51.449693},{"place":"Iasi, Romania","lon":27.583376,"lat":47.161655},{"place":"Iasi, Romania","lon":27.583376,"lat":47.161655},{"place":"Ceska Lipa, Czechia","lon":14.537503,"lat":50.685658},{"place":"Ceska Lipa, Czechia","lon":14.537503,"lat":50.685658},{"place":"Toletino, Italy","lon":13.28451,"lat":43.208946},{"place":"Toletino, Italy","lon":13.28451,"lat":43.208946},{"place":"Catez Ob Savi, Slovenia","lon":15.602881,"lat":45.891766},{"place":"Catez Ob Savi, Slovenia","lon":15.602881,"lat":45.891766},{"place":"Le Passage, France","lon":0.605087,"lat":44.202866},{"place":"Le Passage, France","lon":0.605087,"lat":44.202866},{"place":"Goyang (CANCELLED MOVED TO 12 SEP), Korea, Rep.","lon":126.830939,"lat":37.657158},{"place":"Goyang (CANCELLED MOVED TO 12 SEP), Korea, Rep.","lon":126.830939,"lat":37.657158},{"place":"Sirnak, Turkiye","lon":42.457203,"lat":37.520496},{"place":"Sirnak, Turkiye","lon":42.457203,"lat":37.520496},{"place":"Annenheim, Austria","lon":77.183398,"lat":28.595869},{"place":"Annenheim, Austria","lon":77.183398,"lat":28.595869},{"place":"Bielsko-Biała, Poland","lon":19.046837,"lat":49.823215},{"place":"Bielsko-Biała, Poland","lon":19.046837,"lat":49.823215},{"place":"Liepaja (POSTPONED), Latvia","lon":21.00709,"lat":56.504844},{"place":"Liepaja (POSTPONED), Latvia","lon":21.00709,"lat":56.504844},{"place":"Madrid, Spain","lon":-3.701219,"lat":40.421345},{"place":"Madrid, Spain","lon":-3.701219,"lat":40.421345},{"place":"Sarasota, FL, USA","lon":-82.53854,"lat":27.336466},{"place":"Sarasota, FL, USA","lon":-82.53854,"lat":27.336466},{"place":"DIJON, France","lon":5.041008,"lat":47.32223},{"place":"DIJON, France","lon":5.041008,"lat":47.32223},{"place":"Sainte Genevieve Des Bois, France","lon":2.332869,"lat":48.637573},{"place":"Sainte Genevieve Des Bois, France","lon":2.332869,"lat":48.637573},{"place":"Hoofddorp, Netherlands","lon":4.693486,"lat":52.303905},{"place":"Hoofddorp, Netherlands","lon":4.693486,"lat":52.303905},{"place":"Tossa de Mar, Spain","lon":2.930989,"lat":41.717976},{"place":"Tossa de Mar, Spain","lon":2.930989,"lat":41.717976},{"place":"Le-Chambon-Sur-Lignon, France","lon":4.302439,"lat":45.06039},{"place":"Le-Chambon-Sur-Lignon, France","lon":4.302439,"lat":45.06039},{"place":"Cagnes-sur-Mer (CANCELLED), France","lon":7.149695,"lat":43.66198},{"place":"Cagnes-sur-Mer (CANCELLED), France","lon":7.149695,"lat":43.66198},{"place":"VÄNERSBORG, Sweden","lon":12.322512,"lat":58.37961},{"place":"VÄNERSBORG, Sweden","lon":12.322512,"lat":58.37961},{"place":"San Luis Potosi (CANCELLED), Mexico","lon":-98.459104,"lat":19.700804},{"place":"San Luis Potosi (CANCELLED), Mexico","lon":-98.459104,"lat":19.700804},{"place":"Marcq-en-Baroeul, France","lon":3.104213,"lat":50.675613},{"place":"Marcq-en-Baroeul, France","lon":3.104213,"lat":50.675613},{"place":"Oxford, MS CANCELLED, USA","lon":-89.5188,"lat":34.366783},{"place":"Oxford, MS CANCELLED, USA","lon":-89.5188,"lat":34.366783},{"place":"OSLO, Norway","lon":10.73897,"lat":59.91333},{"place":"OSLO, Norway","lon":10.73897,"lat":59.91333},{"place":"Nagpur, India","lon":79.0821,"lat":21.1498},{"place":"Nagpur, India","lon":79.0821,"lat":21.1498},{"place":"Norrköping, Sweden","lon":16.185743,"lat":58.590572},{"place":"Norrköping, Sweden","lon":16.185743,"lat":58.590572},{"place":"Joue les Tours, France","lon":0.662776,"lat":47.35102},{"place":"Joue les Tours, France","lon":0.662776,"lat":47.35102},{"place":"Liberec, Czechia","lon":15.058041,"lat":50.769377},{"place":"Liberec, Czechia","lon":15.058041,"lat":50.769377},{"place":"Manacor - Mallorca, Spain","lon":3.20286,"lat":39.565921},{"place":"Manacor - Mallorca, Spain","lon":3.20286,"lat":39.565921},{"place":"Jhajjar, Haryana, India","lon":76.653081,"lat":28.607613},{"place":"Jhajjar, Haryana, India","lon":76.653081,"lat":28.607613},{"place":"Platja D'Aro - Girona, Spain","lon":3.068929,"lat":41.81794},{"place":"Platja D'Aro - Girona, Spain","lon":3.068929,"lat":41.81794},{"place":"Le Bouscat, France","lon":-0.599128,"lat":44.866028},{"place":"Le Bouscat, France","lon":-0.599128,"lat":44.866028},{"place":"Birmingham, Great Britain","lon":-1.902691,"lat":52.479699},{"place":"Birmingham, Great Britain","lon":-1.902691,"lat":52.479699},{"place":"Minneapolis, MN (CANCELLED), USA","lon":-93.2661,"lat":44.976105},{"place":"Minneapolis, MN (CANCELLED), USA","lon":-93.2661,"lat":44.976105},{"place":"ŠIroki Brijeg, Bosnia and Herzegovina","lon":17.593794,"lat":43.383293},{"place":"ŠIroki Brijeg, Bosnia and Herzegovina","lon":17.593794,"lat":43.383293},{"place":"Blumenau-Gaspar, Brazil","lon":-48.945327,"lat":-26.91761},{"place":"Blumenau-Gaspar, Brazil","lon":-48.945327,"lat":-26.91761},{"place":"Aizkraukle, Latvia","lon":25.25374,"lat":56.60076},{"place":"Aizkraukle, Latvia","lon":25.25374,"lat":56.60076},{"place":"Sarasota, FL (CANCELLED), USA","lon":-82.53854,"lat":27.336466},{"place":"Sarasota, FL (CANCELLED), USA","lon":-82.53854,"lat":27.336466},{"place":"Santa Ponsa - Mallorca, Spain","lon":2.482501,"lat":39.514904},{"place":"Santa Ponsa - Mallorca, Spain","lon":2.482501,"lat":39.514904},{"place":"Split, Croatia","lon":16.438787,"lat":43.508186},{"place":"Split, Croatia","lon":16.438787,"lat":43.508186},{"place":"Seoul (CANCELLED), Korea, Rep.","lon":126.978291,"lat":37.566679},{"place":"Seoul (CANCELLED), Korea, Rep.","lon":126.978291,"lat":37.566679},{"place":"Serres, Greece","lon":23.54906,"lat":41.09063},{"place":"Serres, Greece","lon":23.54906,"lat":41.09063},{"place":"Oxford, MS (CANCELLED), USA","lon":-89.5188,"lat":34.366783},{"place":"Oxford, MS (CANCELLED), USA","lon":-89.5188,"lat":34.366783},{"place":"Monte-Carlo, Monaco","lon":7.4256,"lat":43.740444},{"place":"Monte-Carlo, Monaco","lon":7.4256,"lat":43.740444},{"place":"Lagos, Portugal","lon":-8.673388,"lat":37.101616},{"place":"Lagos, Portugal","lon":-8.673388,"lat":37.101616},{"place":"Höhr-Grenzhausen, Germany","lon":7.669444,"lat":50.437466},{"place":"Höhr-Grenzhausen, Germany","lon":7.669444,"lat":50.437466},{"place":"Hilton Head, SC, USA","lon":-98.408006,"lat":29.557179},{"place":"Hilton Head, SC, USA","lon":-98.408006,"lat":29.557179},{"place":"Vadul Lui Voda, Moldova","lon":29.08015,"lat":47.087486},{"place":"Vadul Lui Voda, Moldova","lon":29.08015,"lat":47.087486},{"place":"Le Neubourg, France","lon":0.901287,"lat":49.14847},{"place":"Le Neubourg, France","lon":0.901287,"lat":49.14847},{"place":"KøBenhavn, Denmark","lon":12.569734,"lat":55.675313},{"place":"KøBenhavn, Denmark","lon":12.569734,"lat":55.675313},{"place":"Waterloo, Belgium","lon":4.396367,"lat":50.715373},{"place":"Waterloo, Belgium","lon":4.396367,"lat":50.715373},{"place":"Aix-en-Provence, France","lon":5.447729,"lat":43.528618},{"place":"Aix-en-Provence, France","lon":5.447729,"lat":43.528618},{"place":"Kalymnos, Greece","lon":26.984667,"lat":36.949768},{"place":"Kalymnos, Greece","lon":26.984667,"lat":36.949768},{"place":"Erwitte, Germany","lon":8.340309,"lat":51.612213},{"place":"Erwitte, Germany","lon":8.340309,"lat":51.612213},{"place":"Otura, Granada, Spain","lon":-3.581879,"lat":37.102227},{"place":"Otura, Granada, Spain","lon":-3.581879,"lat":37.102227},{"place":"Leipzig (CANCELLED), Germany","lon":12.375101,"lat":51.34083},{"place":"Leipzig (CANCELLED), Germany","lon":12.375101,"lat":51.34083},{"place":"Radom, Poland","lon":21.153679,"lat":51.401176},{"place":"Oetwil Am See, Switzerland","lon":8.721687,"lat":47.27057},{"place":"Oetwil Am See, Switzerland","lon":8.721687,"lat":47.27057},{"place":"Radom, Poland","lon":21.153679,"lat":51.401176},{"place":"Esch/Alzette, Luxembourg","lon":5.981181,"lat":49.493935},{"place":"Esch/Alzette, Luxembourg","lon":5.981181,"lat":49.493935},{"place":"Ricany, Czechia","lon":14.657234,"lat":49.9916},{"place":"Ricany, Czechia","lon":14.657234,"lat":49.9916},{"place":"Rome, Italy","lon":12.476713,"lat":41.899986},{"place":"Rome, Italy","lon":12.476713,"lat":41.899986},{"place":"San Bartolome de Tirajana (Gran Canaria), Spain","lon":-15.549978,"lat":27.92948},{"place":"San Bartolome de Tirajana (Gran Canaria), Spain","lon":-15.549978,"lat":27.92948},{"place":"Crete, Greece","lon":25.134348,"lat":35.340013},{"place":"Landisville, PA (MOVED FROM 02 AUG), USA","lon":-76.41033,"lat":40.09529},{"place":"Crete, Greece","lon":25.134348,"lat":35.340013},{"place":"Landisville, PA (MOVED FROM 02 AUG), USA","lon":-76.41033,"lat":40.09529},{"place":"Repton, Great Britain","lon":-1.550555,"lat":52.839738},{"place":"Repton, Great Britain","lon":-1.550555,"lat":52.839738},{"place":"Karlovac, Croatia","lon":15.551891,"lat":45.494083},{"place":"Karlovac, Croatia","lon":15.551891,"lat":45.494083},{"place":"Hechingen (CANCELLED), Germany","lon":8.963213,"lat":48.351658},{"place":"Hechingen (CANCELLED), Germany","lon":8.963213,"lat":48.351658},{"place":"Kyiv, Ukraine","lon":30.524136,"lat":50.450034},{"place":"Kyiv, Ukraine","lon":30.524136,"lat":50.450034},{"place":"Hertfordshire, Great Britain","lon":-0.398881,"lat":51.655445},{"place":"Hertfordshire, Great Britain","lon":-0.398881,"lat":51.655445},{"place":"Stuttgart-Vaihingen (CANCELLED), Germany","lon":9.110107,"lat":48.731083},{"place":"Stuttgart-Vaihingen (CANCELLED), Germany","lon":9.110107,"lat":48.731083},{"place":"Etten-Leur, Netherlands","lon":4.63542,"lat":51.568466},{"place":"Etten-Leur, Netherlands","lon":4.63542,"lat":51.568466},{"place":"L'aquila, Italy","lon":13.40093,"lat":42.352943},{"place":"L'aquila, Italy","lon":13.40093,"lat":42.352943},{"place":"Forlì, Italy","lon":12.040021,"lat":44.22238},{"place":"Forlì, Italy","lon":12.040021,"lat":44.22238},{"place":"La Baule, France","lon":2.092483,"lat":45.642262},{"place":"La Baule, France","lon":2.092483,"lat":45.642262},{"place":"Daytona Beach, FL (CANCELLED), USA","lon":-81.02118,"lat":29.211498},{"place":"Daytona Beach, FL (CANCELLED), USA","lon":-81.02118,"lat":29.211498},{"place":"Imperia, Italy","lon":8.039931,"lat":43.890068},{"place":"Imperia, Italy","lon":8.039931,"lat":43.890068},{"place":"Jhajjar, India","lon":76.653081,"lat":28.607613},{"place":"Jhajjar, India","lon":76.653081,"lat":28.607613},{"place":"Lasne, Belgium","lon":4.484416,"lat":50.686004},{"place":"Lasne, Belgium","lon":4.484416,"lat":50.686004},{"place":"Wiesbaden (MOVED TO 20 SEPT), Germany","lon":8.241305,"lat":50.08197},{"place":"Wiesbaden (MOVED TO 20 SEPT), Germany","lon":8.241305,"lat":50.08197},{"place":"Saint-Malo (UPGRADED TO WTA125K MOVED TO 3 MAY), France","lon":-2.026178,"lat":48.648594},{"place":"Saint-Malo (UPGRADED TO WTA125K MOVED TO 3 MAY), France","lon":-2.026178,"lat":48.648594},{"place":"Borne, Netherlands","lon":6.756704,"lat":52.300728},{"place":"Borne, Netherlands","lon":6.756704,"lat":52.300728},{"place":"Bellinzona, Switzerland","lon":9.022511,"lat":46.189984},{"place":"Bellinzona, Switzerland","lon":9.022511,"lat":46.189984},{"place":"Novo Mesto, Slovenia","lon":15.169668,"lat":45.804048},{"place":"Novo Mesto, Slovenia","lon":15.169668,"lat":45.804048},{"place":"Croissy-Beaubourg (CANCELLED), France","lon":2.659753,"lat":48.827423},{"place":"Croissy-Beaubourg (CANCELLED), France","lon":2.659753,"lat":48.827423},{"place":"Valencia, Spain","lon":-0.375984,"lat":39.47132},{"place":"Valencia, Spain","lon":-0.375984,"lat":39.47132},{"place":"Velenje, Slovenia","lon":15.11503,"lat":46.359287},{"place":"Velenje, Slovenia","lon":15.11503,"lat":46.359287},{"place":"Vierumaki, Finland","lon":25.930548,"lat":61.106174},{"place":"Vierumaki, Finland","lon":25.930548,"lat":61.106174},{"place":"THE TENNISCLUB AT NEWPORT BEACH, USA","lon":-117.930145,"lat":33.617992},{"place":"THE TENNISCLUB AT NEWPORT BEACH, USA","lon":-117.930145,"lat":33.617992},{"place":"Humenne, Slovakia","lon":21.907133,"lat":48.934357},{"place":"Humenne, Slovakia","lon":21.907133,"lat":48.934357},{"place":"Wrexham, Great Britain","lon":-2.993507,"lat":53.046627},{"place":"Wrexham, Great Britain","lon":-2.993507,"lat":53.046627},{"place":"Macon (CANCELLED), France","lon":4.832122,"lat":46.304287},{"place":"Macon (CANCELLED), France","lon":4.832122,"lat":46.304287},{"place":"W60 Rome, GA, USA","lon":-84.967995,"lat":34.472924},{"place":"W60 Rome, GA, USA","lon":-84.967995,"lat":34.472924},{"place":"KääRiku, Otepää Vald, Estonia","lon":26.480089,"lat":58.062803},{"place":"KääRiku, Otepää Vald, Estonia","lon":26.480089,"lat":58.062803},{"place":"Tartu, Estonia","lon":26.722664,"lat":58.379997},{"place":"Fujairah Tennis & Country Club, United Arab Emirates","lon":56.338078,"lat":25.122963},{"place":"Fujairah Tennis & Country Club, United Arab Emirates","lon":56.338078,"lat":25.122963},{"place":"Tartu, Estonia","lon":26.722664,"lat":58.379997},{"place":"Bytom, Poland","lon":18.921978,"lat":50.346897},{"place":"Bytom, Poland","lon":18.921978,"lat":50.346897},{"place":"Bratislava (Cancelled), Slovakia","lon":17.108387,"lat":48.1438},{"place":"Bratislava (Cancelled), Slovakia","lon":17.108387,"lat":48.1438},{"place":"Kamberovica Polje Bb, Bosnia and Herzegovina","lon":19.318492,"lat":43.836259},{"place":"Kamberovica Polje Bb, Bosnia and Herzegovina","lon":19.318492,"lat":43.836259},{"place":"AUS, Australia","lon":148.965548,"lat":-35.525673},{"place":"AUS, Australia","lon":148.965548,"lat":-35.525673},{"place":"Biel/Bienne, Switzerland","lon":7.246737,"lat":47.137917},{"place":"Biel/Bienne, Switzerland","lon":7.246737,"lat":47.137917},{"place":"Karaganda (CANCELLED), Kazakhstan","lon":73.102662,"lat":49.816128},{"place":"Karaganda (CANCELLED), Kazakhstan","lon":73.102662,"lat":49.816128},{"place":"Turkey, Turkiye","lon":41.15117,"lat":37.892407},{"place":"Turkey, Turkiye","lon":41.15117,"lat":37.892407},{"place":"Cairo (CANCELLED), Egypt","lon":31.241106,"lat":30.047558},{"place":"Cairo (CANCELLED), Egypt","lon":31.241106,"lat":30.047558},{"place":"Sobota, Poland","lon":19.685167,"lat":52.11465},{"place":"Sobota, Poland","lon":19.685167,"lat":52.11465},{"place":"Jablonec nad Nisou (CANCELLED), Czechia","lon":15.171606,"lat":50.72383},{"place":"Jablonec nad Nisou (CANCELLED), Czechia","lon":15.171606,"lat":50.72383},{"place":"Marcq-En-Baroeul, France","lon":3.104213,"lat":50.675613},{"place":"Marcq-En-Baroeul, France","lon":3.104213,"lat":50.675613},{"place":"Haabneeme, Estonia","lon":25.761527,"lat":58.778397},{"place":"Haabneeme, Estonia","lon":25.761527,"lat":58.778397},{"place":"Pirogovo, Russia","lon":53.158596,"lat":56.784668},{"place":"Pirogovo, Russia","lon":53.158596,"lat":56.784668},{"place":"Las Palmas de Gran Canaria (CANCELLED), Spain","lon":-15.434029,"lat":28.136885},{"place":"Las Palmas de Gran Canaria (CANCELLED), Spain","lon":-15.434029,"lat":28.136885},{"place":"Dnipro, Ukraine","lon":35.04754,"lat":48.46346},{"place":"Dnipro, Ukraine","lon":35.04754,"lat":48.46346},{"place":"Toronto (CANCELLED), Canada","lon":-79.38355,"lat":43.647938},{"place":"Toronto (CANCELLED), Canada","lon":-79.38355,"lat":43.647938},{"place":"Corradino-Paola, Malta","lon":14.507375,"lat":35.871799},{"place":"Corradino-Paola, Malta","lon":14.507375,"lat":35.871799},{"place":"Alanya, Turkiye","lon":31.998941,"lat":36.542297},{"place":"Alanya, Turkiye","lon":31.998941,"lat":36.542297},{"place":"Poitiers (CANCELLED), France","lon":0.341987,"lat":46.582954},{"place":"Poitiers (CANCELLED), France","lon":0.341987,"lat":46.582954},{"place":"NorrköPing, Sweden","lon":16.185743,"lat":58.590572},{"place":"NorrköPing, Sweden","lon":16.185743,"lat":58.590572},{"place":"Ramat Hasharon, Israel","lon":34.838486,"lat":32.145855},{"place":"Ramat Hasharon, Israel","lon":34.838486,"lat":32.145855},{"place":"Reims, France","lon":4.029625,"lat":49.25483},{"place":"Reims, France","lon":4.029625,"lat":49.25483},{"place":"Penina, Portugal","lon":-7.43985,"lat":39.294016},{"place":"Penina, Portugal","lon":-7.43985,"lat":39.294016},{"place":"Saguenay (CANCELLED), Canada","lon":-71.070579,"lat":48.405388},{"place":"Saguenay (CANCELLED), Canada","lon":-71.070579,"lat":48.405388},{"place":"Palmanova - Calvia, Spain","lon":2.53846,"lat":39.52341},{"place":"Palmanova - Calvia, Spain","lon":2.53846,"lat":39.52341},{"place":"Funchal, Portugal","lon":-16.907255,"lat":32.648125},{"place":"Funchal, Portugal","lon":-16.907255,"lat":32.648125},{"place":"Villena - Alicante, Spain","lon":-0.405844,"lat":38.407793},{"place":"Villena - Alicante, Spain","lon":-0.405844,"lat":38.407793},{"place":"Valencia (CANCELLED), Spain","lon":-0.375984,"lat":39.47132},{"place":"Valencia (CANCELLED), Spain","lon":-0.375984,"lat":39.47132},{"place":"Pedrouzos, 3, Spain","lon":-7.3413,"lat":42.680927},{"place":"Pedrouzos, 3, Spain","lon":-7.3413,"lat":42.680927},{"place":"Hilton Head, SC (CANCELLED), USA","lon":-98.408006,"lat":29.557179},{"place":"Hilton Head, SC (CANCELLED), USA","lon":-98.408006,"lat":29.557179},{"place":"Paralimni, Cyprus","lon":33.981724,"lat":35.03948},{"place":"Paralimni, Cyprus","lon":33.981724,"lat":35.03948},{"place":"Cherbourg-en-Cotentin (CANCELLED), France","lon":-1.623819,"lat":49.639427},{"place":"Cherbourg-en-Cotentin (CANCELLED), France","lon":-1.623819,"lat":49.639427},{"place":"Niš, Serbia","lon":21.894835,"lat":43.318123},{"place":"Niš, Serbia","lon":21.894835,"lat":43.318123},{"place":"Kyoto (CANCELLED), Japan","lon":135.769177,"lat":35.006173},{"place":"Kyoto (CANCELLED), Japan","lon":135.769177,"lat":35.006173},{"place":"Clermont-Ferrand (CANCELLED), France","lon":3.082542,"lat":45.778698},{"place":"Clermont-Ferrand (CANCELLED), France","lon":3.082542,"lat":45.778698},{"place":"Poreč, Croatia","lon":13.593142,"lat":45.227863},{"place":"Poreč, Croatia","lon":13.593142,"lat":45.227863},{"place":"Tsukuba (CANCELLED), Japan","lon":140.077552,"lat":36.08322},{"place":"Tsukuba (CANCELLED), Japan","lon":140.077552,"lat":36.08322},{"place":"2840 Holte, Denmark","lon":12.47258,"lat":55.811084},{"place":"2840 Holte, Denmark","lon":12.47258,"lat":55.811084},{"place":"Pazardzhik, Bulgaria","lon":24.33218,"lat":42.19139},{"place":"Pazardzhik, Bulgaria","lon":24.33218,"lat":42.19139},{"place":"Budaest, Hungary","lon":19.040359,"lat":47.497994},{"place":"Budaest, Hungary","lon":19.040359,"lat":47.497994},{"place":"Al. I.J Paderewskiego 35, Poland","lon":19.475229,"lat":51.089889},{"place":"Al. I.J Paderewskiego 35, Poland","lon":19.475229,"lat":51.089889},{"place":"Saint Palais sur Mer, France","lon":-1.088783,"lat":45.64319},{"place":"Saint Palais sur Mer, France","lon":-1.088783,"lat":45.64319},{"place":"KršKo, Slovenia","lon":15.494677,"lat":45.957645},{"place":"KršKo, Slovenia","lon":15.494677,"lat":45.957645},{"place":"Doboj, Bosnia and Herzegovina","lon":18.08502,"lat":44.732433},{"place":"Doboj, Bosnia and Herzegovina","lon":18.08502,"lat":44.732433},{"place":"Almaty (CANCELLED), Kazakhstan","lon":76.945728,"lat":43.236392},{"place":"Almaty (CANCELLED), Kazakhstan","lon":76.945728,"lat":43.236392},{"place":"Verbier (CANCELLED), Switzerland","lon":7.229043,"lat":46.096066},{"place":"Verbier (CANCELLED), Switzerland","lon":7.229043,"lat":46.096066},{"place":"Bergeijk, Netherlands","lon":5.358198,"lat":51.322063},{"place":"Bergeijk, Netherlands","lon":5.358198,"lat":51.322063},{"place":"Braunschweig (CANCELLED), Germany","lon":10.522591,"lat":52.264355},{"place":"Braunschweig (CANCELLED), Germany","lon":10.522591,"lat":52.264355},{"place":"Szekesfehervar, Hungary","lon":18.410381,"lat":47.19081},{"place":"Szekesfehervar, Hungary","lon":18.410381,"lat":47.19081},{"place":"Nonthaburi (CANCELLED), Thailand","lon":100.493789,"lat":13.842896},{"place":"Nonthaburi (CANCELLED), Thailand","lon":100.493789,"lat":13.842896},{"place":"BENIDORM-Alicante, Spain","lon":-0.443477,"lat":38.417986},{"place":"BENIDORM-Alicante, Spain","lon":-0.443477,"lat":38.417986},{"place":"Wanfercee-Baulet (CANCELLED), Belgium","lon":4.588948,"lat":50.47194},{"place":"Wanfercee-Baulet (CANCELLED), Belgium","lon":4.588948,"lat":50.47194},{"place":"Cluj Napoca, Romania","lon":23.589823,"lat":46.770878},{"place":"Cluj Napoca, Romania","lon":23.589823,"lat":46.770878},{"place":"Peja, Kosovo","lon":20.288576,"lat":42.659399},{"place":"Peja, Kosovo","lon":20.288576,"lat":42.659399},{"place":"ROYAL TENNIS CLUB DE MOHAMMEDIA, Morocco","lon":10.018343,"lat":51.133481},{"place":"ROYAL TENNIS CLUB DE MOHAMMEDIA, Morocco","lon":10.018343,"lat":51.133481},{"place":"La Nucia - Alicante, Spain","lon":-0.355237,"lat":38.450175},{"place":"La Nucia - Alicante, Spain","lon":-0.355237,"lat":38.450175},{"place":"Granby  (CANCELLED), Canada","lon":-72.72697,"lat":45.40001},{"place":"Granby  (CANCELLED), Canada","lon":-72.72697,"lat":45.40001},{"place":"Velká Hledsebe, Czechia","lon":12.667507,"lat":49.961338},{"place":"Velká Hledsebe, Czechia","lon":12.667507,"lat":49.961338},{"place":"Biarritz (CANCELLED), France","lon":-1.559175,"lat":43.4821},{"place":"Biarritz (CANCELLED), France","lon":-1.559175,"lat":43.4821},{"place":"OtočEc, Slovenia","lon":15.222154,"lat":45.833633},{"place":"OtočEc, Slovenia","lon":15.222154,"lat":45.833633},{"place":"Norges-la-Ville, France","lon":5.077707,"lat":47.406685},{"place":"Norges-la-Ville, France","lon":5.077707,"lat":47.406685},{"place":"Oxford, MS, USA","lon":-89.5188,"lat":34.366783},{"place":"Oxford, MS, USA","lon":-89.5188,"lat":34.366783},{"place":"Djakovo, Croatia","lon":18.409388,"lat":45.309837},{"place":"Djakovo, Croatia","lon":18.409388,"lat":45.309837},{"place":"Chornomorsk, Ukraine","lon":30.654924,"lat":46.301346},{"place":"Chornomorsk, Ukraine","lon":30.654924,"lat":46.301346},{"place":"Greve, Denmark","lon":12.240594,"lat":55.597527},{"place":"Greve, Denmark","lon":12.240594,"lat":55.597527},{"place":"Cleveland, OH, USA","lon":-81.690315,"lat":41.501377},{"place":"Cleveland, OH, USA","lon":-81.690315,"lat":41.501377},{"place":"Rīga, Latvia","lon":24.105185,"lat":56.949398},{"place":"Rīga, Latvia","lon":24.105185,"lat":56.949398},{"place":"PíSek, Czechia","lon":14.149767,"lat":49.308533},{"place":"PíSek, Czechia","lon":14.149767,"lat":49.308533},{"place":"Bonita Bay, FL, USA","lon":-81.80772,"lat":26.34929},{"place":"Bonita Bay, FL, USA","lon":-81.80772,"lat":26.34929},{"place":"Norrkoping, Sweden","lon":16.185743,"lat":58.590572},{"place":"Norrkoping, Sweden","lon":16.185743,"lat":58.590572},{"place":"ORADEA, Romania","lon":21.93059,"lat":47.055992},{"place":"ORADEA, Romania","lon":21.93059,"lat":47.055992},{"place":"Vadul Lui Voda, Moldova","lon":29.08015,"lat":47.087486},{"place":"Vadul Lui Voda, Moldova","lon":29.08015,"lat":47.087486},{"place":"Aviles, Spain","lon":-5.922247,"lat":43.557236},{"place":"Aviles, Spain","lon":-5.922247,"lat":43.557236},{"place":"Andijan (CANCELLED), Uzbekistan","lon":72.343713,"lat":40.787307},{"place":"Andijan (CANCELLED), Uzbekistan","lon":72.343713,"lat":40.787307},{"place":"FüRstenfeld, Austria","lon":16.077534,"lat":47.050114},{"place":"FüRstenfeld, Austria","lon":16.077534,"lat":47.050114},{"place":"Otocec, Slovenia","lon":15.222154,"lat":45.833633},{"place":"Otocec, Slovenia","lon":15.222154,"lat":45.833633},{"place":"Kiryat Motzkin, Israel","lon":35.075764,"lat":32.8376},{"place":"Kiryat Motzkin, Israel","lon":35.075764,"lat":32.8376},{"place":"Tba, Bulgaria","lon":77.181645,"lat":28.594893},{"place":"Tba, Bulgaria","lon":77.181645,"lat":28.594893},{"place":"Brasov, Romania","lon":25.610168,"lat":45.651417},{"place":"Brasov, Romania","lon":25.610168,"lat":45.651417},{"place":"Hørsholm, Denmark","lon":12.497591,"lat":55.88061},{"place":"Hørsholm, Denmark","lon":12.497591,"lat":55.88061},{"place":"Bellinzona, Switzerland","lon":9.022511,"lat":46.189984},{"place":"Kofu (CANCELLED), Japan","lon":138.56869,"lat":35.661524},{"place":"Kofu (CANCELLED), Japan","lon":138.56869,"lat":35.661524},{"place":"Bellinzona, Switzerland","lon":9.022511,"lat":46.189984},{"place":"Patra, Greece","lon":21.734795,"lat":38.245506},{"place":"Patra, Greece","lon":21.734795,"lat":38.245506},{"place":"Montreux-Territet, Switzerland","lon":6.910115,"lat":46.433422},{"place":"Montreux-Territet, Switzerland","lon":6.910115,"lat":46.433422},{"place":"Osaka (CANCELLED), Japan","lon":135.500784,"lat":34.683595},{"place":"Osaka (CANCELLED), Japan","lon":135.500784,"lat":34.683595},{"place":"Near Aylesbury, Great Britain","lon":-0.812757,"lat":51.81684},{"place":"Near Aylesbury, Great Britain","lon":-0.812757,"lat":51.81684},{"place":"Olimpia, Brazil","lon":-48.913529,"lat":-20.738465},{"place":"Olimpia, Brazil","lon":-48.913529,"lat":-20.738465},{"place":"Presov, Slovakia","lon":21.239887,"lat":48.9978},{"place":"Presov, Slovakia","lon":21.239887,"lat":48.9978},{"place":"Cuneo, Italy","lon":7.547108,"lat":44.3888},{"place":"Cuneo, Italy","lon":7.547108,"lat":44.3888},{"place":"Xiamen (CANCELLED), China, P.R.","lon":118.086275,"lat":24.47891},{"place":"Xiamen (CANCELLED), China, P.R.","lon":118.086275,"lat":24.47891},{"place":"TC Favorit","lon":-0.543613,"lat":42.580364},{"place":"TC Favorit","lon":-0.543613,"lat":42.580364},{"place":"Vic, Spain","lon":2.255204,"lat":41.930954},{"place":"Vic, Spain","lon":2.255204,"lat":41.930954},{"place":"Gyor, Hungary","lon":17.634755,"lat":47.683812},{"place":"Gyor, Hungary","lon":17.634755,"lat":47.683812},{"place":"Nicholasville, KY, USA","lon":-84.57302,"lat":37.88038},{"place":"Nicholasville, KY, USA","lon":-84.57302,"lat":37.88038},{"place":"Palmanova.Mallorca, Spain","lon":-4.055685,"lat":41.294856},{"place":"Palmanova.Mallorca, Spain","lon":-4.055685,"lat":41.294856},{"place":"Petit-Bourg (Guadeloupe), Guadeloupe","lon":-61.590542,"lat":16.192909},{"place":"Petit-Bourg (Guadeloupe), Guadeloupe","lon":-61.590542,"lat":16.192909},{"place":"Penina - Portimao, Portugal","lon":-8.536365,"lat":37.13733},{"place":"Penina - Portimao, Portugal","lon":-8.536365,"lat":37.13733},{"place":"Fort-de-France (Martinique), Martinique","lon":-61.071275,"lat":14.603556},{"place":"Fort-de-France (Martinique), Martinique","lon":-61.071275,"lat":14.603556},{"place":"Jurmala, Latvia","lon":23.788698,"lat":56.972716},{"place":"Jurmala, Latvia","lon":23.788698,"lat":56.972716},{"place":"***EVENT MOVED TO BENDIGO***, Australia","lon":144.278607,"lat":-36.759642},{"place":"***EVENT MOVED TO BENDIGO***, Australia","lon":144.278607,"lat":-36.759642},{"place":"Meneou, Larnaca, Cyprus","lon":33.605426,"lat":34.836802},{"place":"Meneou, Larnaca, Cyprus","lon":33.605426,"lat":34.836802},{"place":"Saransk, Russia","lon":45.185246,"lat":54.184265},{"place":"Saransk, Russia","lon":45.185246,"lat":54.184265},{"place":"Corradino, Paola, Malta","lon":14.507375,"lat":35.871799},{"place":"Corradino, Paola, Malta","lon":14.507375,"lat":35.871799},{"place":"St. Etienne, France","lon":4.390536,"lat":45.4351},{"place":"St. Etienne, France","lon":4.390536,"lat":45.4351},{"place":"BRATISLAVA, Slovakia","lon":17.108387,"lat":48.1438},{"place":"BRATISLAVA, Slovakia","lon":17.108387,"lat":48.1438},{"place":"Bad Waltersdorf, Austria","lon":16.00933,"lat":47.16963},{"place":"Bad Waltersdorf, Austria","lon":16.00933,"lat":47.16963},{"place":"Sainte-GenevièVe-Des-Bois, France","lon":2.332869,"lat":48.637573},{"place":"Sainte-GenevièVe-Des-Bois, France","lon":2.332869,"lat":48.637573},{"place":"Austin, TX (MOVED TO 21 OCT), USA","lon":-97.297198,"lat":33.085762},{"place":"Austin, TX (MOVED TO 21 OCT), USA","lon":-97.297198,"lat":33.085762},{"place":"Joue-Les-Tours (CANCELLED), France","lon":0.662776,"lat":47.35102},{"place":"Joue-Les-Tours (CANCELLED), France","lon":0.662776,"lat":47.35102},{"place":"Le Chambon Sur Lignon, France","lon":4.302439,"lat":45.06039},{"place":"Le Chambon Sur Lignon, France","lon":4.302439,"lat":45.06039},{"place":"Cherbourg-en-Cotentin, France","lon":-1.623819,"lat":49.639427},{"place":"Cherbourg-en-Cotentin, France","lon":-1.623819,"lat":49.639427},{"place":"Bar-Le-Duc, France","lon":5.161114,"lat":48.7734},{"place":"Bar-Le-Duc, France","lon":5.161114,"lat":48.7734},{"place":"Stockton, CA (CANCELLED), USA","lon":-121.2884,"lat":37.952866},{"place":"Stockton, CA (CANCELLED), USA","lon":-121.2884,"lat":37.952866},{"place":"Leeuwarden, Netherlands","lon":5.792342,"lat":53.199776},{"place":"Leeuwarden, Netherlands","lon":5.792342,"lat":53.199776},{"place":"Poitiers, France","lon":0.341987,"lat":46.582954},{"place":"Poitiers, France","lon":0.341987,"lat":46.582954},{"place":"State College, PA (CANCELLED), USA","lon":-77.86034,"lat":40.793438},{"place":"State College, PA (CANCELLED), USA","lon":-77.86034,"lat":40.793438},{"place":"Viimsi vald, Estonia","lon":24.843472,"lat":59.499203},{"place":"Viimsi vald, Estonia","lon":24.843472,"lat":59.499203},{"place":"Chornomorsk (CANCELLED), Ukraine","lon":30.654924,"lat":46.301346},{"place":"Chornomorsk (CANCELLED), Ukraine","lon":30.654924,"lat":46.301346},{"place":"Marcq en Baroeul, France","lon":3.104213,"lat":50.675613},{"place":"Marcq en Baroeul, France","lon":3.104213,"lat":50.675613},{"place":"Concord, MA (MOVED TO 12 AUG & DOWNGRADED TO W60), USA","lon":-84.433285,"lat":33.101947},{"place":"Concord, MA (MOVED TO 12 AUG & DOWNGRADED TO W60), USA","lon":-84.433285,"lat":33.101947},{"place":"Bertgen, Norway","lon":5.325952,"lat":60.39555},{"place":"Bertgen, Norway","lon":5.325952,"lat":60.39555},{"place":"Penza, Russia","lon":45.010708,"lat":53.19586},{"place":"Penza, Russia","lon":45.010708,"lat":53.19586},{"place":"Blois, France","lon":1.336106,"lat":47.58605},{"place":"Blois, France","lon":1.336106,"lat":47.58605},{"place":"Bree, Belgium","lon":5.598501,"lat":51.141798},{"place":"Bree, Belgium","lon":5.598501,"lat":51.141798},{"place":"Piestany (CANCELLED), Slovakia","lon":17.834412,"lat":48.589256},{"place":"Piestany (CANCELLED), Slovakia","lon":17.834412,"lat":48.589256},{"place":"Khanty - Mansiysk, Russia","lon":69.0169,"lat":61.004116},{"place":"Khanty - Mansiysk, Russia","lon":69.0169,"lat":61.004116},{"place":"Bronx, NY (CANCELLED), USA","lon":-73.841275,"lat":40.92098},{"place":"Bronx, NY (CANCELLED), USA","lon":-73.841275,"lat":40.92098},{"place":"Burgas, Bulgaria","lon":27.472364,"lat":42.49361},{"place":"Burgas, Bulgaria","lon":27.472364,"lat":42.49361},{"place":"Huangshan, China, P.R.","lon":118.31506,"lat":29.71318},{"place":"Huangshan, China, P.R.","lon":118.31506,"lat":29.71318},{"place":"Zadar, Croatia","lon":15.234303,"lat":44.121859},{"place":"Zadar, Croatia","lon":15.234303,"lat":44.121859},{"place":"Concord, MA, USA","lon":-71.349045,"lat":42.460487},{"place":"Concord, MA, USA","lon":-71.349045,"lat":42.460487},{"place":"Hoehr-Grenzhausen, Germany","lon":7.669444,"lat":50.437466},{"place":"Hoehr-Grenzhausen, Germany","lon":7.669444,"lat":50.437466},{"place":"Cali (CANCELLED), Colombia","lon":-76.53364,"lat":3.455469},{"place":"Cali (CANCELLED), Colombia","lon":-76.53364,"lat":3.455469},{"place":"Svyatopetrivske Village, Ukraine","lon":34.440613,"lat":49.590467},{"place":"Svyatopetrivske Village, Ukraine","lon":34.440613,"lat":49.590467},{"place":"Banska Bystrica, Slovakia","lon":19.145852,"lat":48.735933},{"place":"Banska Bystrica, Slovakia","lon":19.145852,"lat":48.735933},{"place":"Arhavi (CANCELLED), Turkiye","lon":41.309246,"lat":41.352127},{"place":"Arhavi (CANCELLED), Turkiye","lon":41.309246,"lat":41.352127},{"place":"Banja Luka, Bosnia and Herzegovina","lon":17.19112,"lat":44.77114},{"place":"Banja Luka, Bosnia and Herzegovina","lon":17.19112,"lat":44.77114},{"place":"Sozopol, Bulgaria","lon":27.693457,"lat":42.421974},{"place":"Sozopol, Bulgaria","lon":27.693457,"lat":42.421974},{"place":"Nairobi (CANCELLED), Kenya","lon":36.817245,"lat":-1.283253},{"place":"Nairobi (CANCELLED), Kenya","lon":36.817245,"lat":-1.283253},{"place":"Vitoria-Gasteiz, Spain","lon":-2.673151,"lat":42.847042},{"place":"Vitoria-Gasteiz, Spain","lon":-2.673151,"lat":42.847042},{"place":"Palmela, Portugal","lon":-8.901644,"lat":38.569717},{"place":"Palmela, Portugal","lon":-8.901644,"lat":38.569717},{"place":"Minsk Region, Volojinski District, Belarus","lon":27.591021,"lat":53.609904},{"place":"Minsk Region, Volojinski District, Belarus","lon":27.591021,"lat":53.609904},{"place":"Brestovic, Pejë, Kosovo","lon":20.302464,"lat":42.701764},{"place":"Brestovic, Pejë, Kosovo","lon":20.302464,"lat":42.701764},{"place":"Benidorm, Spain","lon":-0.127459,"lat":38.537037},{"place":"Benidorm, Spain","lon":-0.127459,"lat":38.537037},{"place":"Penza, Russia","lon":45.010708,"lat":53.19586},{"place":"Penza, Russia","lon":45.010708,"lat":53.19586},{"place":"Székesfehérvár, Hungary","lon":18.410381,"lat":47.19081},{"place":"Székesfehérvár, Hungary","lon":18.410381,"lat":47.19081},{"place":"Ulanqab, China, P.R.","lon":113.128203,"lat":40.992322},{"place":"Ulanqab, China, P.R.","lon":113.128203,"lat":40.992322},{"place":"Denver, CO, USA","lon":-104.98611,"lat":39.74168},{"place":"Denver, CO, USA","lon":-104.98611,"lat":39.74168},{"place":"La Nucia (Alicante), Spain","lon":-0.355237,"lat":38.450175},{"place":"La Nucia (Alicante), Spain","lon":-0.355237,"lat":38.450175},{"place":"Santa Margarita de Montbui, Spain","lon":1.608045,"lat":41.575615},{"place":"Santa Margarita de Montbui, Spain","lon":1.608045,"lat":41.575615},{"place":"San Marino , San Marino","lon":12.446699,"lat":43.9364},{"place":"San Marino , San Marino","lon":12.446699,"lat":43.9364},{"place":"Barletta, Italy","lon":16.285255,"lat":41.320766},{"place":"Barletta, Italy","lon":16.285255,"lat":41.320766},{"place":"Gyumri, Armenia","lon":43.839368,"lat":40.783135},{"place":"Gyumri, Armenia","lon":43.839368,"lat":40.783135},{"place":"Varberg, Sweden","lon":12.250089,"lat":57.105797},{"place":"Varberg, Sweden","lon":12.250089,"lat":57.105797},{"place":"Hotonj I/3 VogošćA, Bosnia and Herzegovina","lon":18.344238,"lat":43.901585},{"place":"Hotonj I/3 VogošćA, Bosnia and Herzegovina","lon":18.344238,"lat":43.901585},{"place":"Williamsburg, VA, USA","lon":-76.701744,"lat":37.27117},{"place":"Williamsburg, VA, USA","lon":-76.701744,"lat":37.27117},{"place":"Groetzingen / Karlsruhe, Germany","lon":8.496097,"lat":49.00721},{"place":"Groetzingen / Karlsruhe, Germany","lon":8.496097,"lat":49.00721},{"place":"Bonita Springs, FL, USA","lon":-81.778946,"lat":26.338736},{"place":"Bonita Springs, FL, USA","lon":-81.778946,"lat":26.338736},{"place":"Holte, Denmark","lon":12.47258,"lat":55.811085},{"place":"Holte, Denmark","lon":12.47258,"lat":55.811085},{"place":"Constanta, Romania","lon":28.651758,"lat":44.17856},{"place":"Constanta, Romania","lon":28.651758,"lat":44.17856},{"place":"Ajaccio, France","lon":8.736935,"lat":41.91863},{"place":"Quanzhou (CANCELLED), China, P.R.","lon":118.672768,"lat":24.875394},{"place":"Quanzhou (CANCELLED), China, P.R.","lon":118.672768,"lat":24.875394},{"place":"Ajaccio, France","lon":8.736935,"lat":41.91863},{"place":"El Prat De Llobregat - Barcelona, Spain","lon":2.0943,"lat":41.325485},{"place":"El Prat De Llobregat - Barcelona, Spain","lon":2.0943,"lat":41.325485},{"place":"Calvi, France","lon":8.75847,"lat":42.5677},{"place":"Calvi, France","lon":8.75847,"lat":42.5677},{"place":"Palm Harbor, FL, USA","lon":-82.76497,"lat":28.078999},{"place":"Palm Harbor, FL, USA","lon":-82.76497,"lat":28.078999},{"place":"Tampico (CANCELLED), Mexico","lon":-98.94386,"lat":19.613914},{"place":"Tampico (CANCELLED), Mexico","lon":-98.94386,"lat":19.613914},{"place":"ARAD, Romania","lon":21.316925,"lat":46.173473},{"place":"ARAD, Romania","lon":21.316925,"lat":46.173473},{"place":"Pozoblanco, Spain","lon":-4.849682,"lat":38.381065},{"place":"Pozoblanco, Spain","lon":-4.849682,"lat":38.381065},{"place":"Brescia, Italy","lon":10.219558,"lat":45.539703},{"place":"Brescia, Italy","lon":10.219558,"lat":45.539703},{"place":"Forli, Italy","lon":12.040021,"lat":44.22238},{"place":"Forli, Italy","lon":12.040021,"lat":44.22238},{"place":"Buzau, Romania","lon":26.820683,"lat":45.153008},{"place":"Buzau, Romania","lon":26.820683,"lat":45.153008},{"place":"Carson, CA, USA","lon":-118.251076,"lat":33.831764},{"place":"Carson, CA, USA","lon":-118.251076,"lat":33.831764},{"place":"Portoroz, Slovenia","lon":13.590121,"lat":45.513596},{"place":"Portoroz, Slovenia","lon":13.590121,"lat":45.513596},{"place":"Ruse, Bulgaria","lon":25.952076,"lat":43.848526},{"place":"Ruse, Bulgaria","lon":25.952076,"lat":43.848526},{"place":"Jodhpur, India","lon":73.035667,"lat":26.29694},{"place":"Jodhpur, India","lon":73.035667,"lat":26.29694},{"place":"Sassuolo, Italy","lon":10.783416,"lat":44.541946},{"place":"Sassuolo, Italy","lon":10.783416,"lat":44.541946},{"place":"Marnes La Coquette, France","lon":2.178582,"lat":48.830555},{"place":"Marnes La Coquette, France","lon":2.178582,"lat":48.830555},{"place":"Fort-de-France (Martinique), France","lon":-61.071275,"lat":14.603556},{"place":"Fort-de-France (Martinique), France","lon":-61.071275,"lat":14.603556},{"place":"Colombo (CANCELLED), Sri Lanka","lon":79.854113,"lat":6.938747},{"place":"Colombo (CANCELLED), Sri Lanka","lon":79.854113,"lat":6.938747},{"place":"Valencia (MOVED TO 24 SEPT), Spain","lon":-0.375984,"lat":39.47132},{"place":"Valencia (MOVED TO 24 SEPT), Spain","lon":-0.375984,"lat":39.47132},{"place":"Muenster, Germany","lon":7.629553,"lat":51.96083},{"place":"Muenster, Germany","lon":7.629553,"lat":51.96083},{"place":"Muzaffarnagar, India","lon":77.700042,"lat":29.471832},{"place":"Slieven, Bulgaria","lon":26.317656,"lat":42.680508},{"place":"Slieven, Bulgaria","lon":26.317656,"lat":42.680508},{"place":"Muzaffarnagar, India","lon":77.700042,"lat":29.471832},{"place":"Lawrence, KS, USA","lon":-95.235916,"lat":38.96752},{"place":"Otočec Ob Krki, Slovenia","lon":15.075094,"lat":45.783074},{"place":"Otočec Ob Krki, Slovenia","lon":15.075094,"lat":45.783074},{"place":"Lawrence, KS, USA","lon":-95.235916,"lat":38.96752},{"place":"Colina, Chile","lon":-70.676023,"lat":-33.204567},{"place":"Ptolemaida, Greece","lon":21.679283,"lat":40.513542},{"place":"Ptolemaida, Greece","lon":21.679283,"lat":40.513542},{"place":"Colina, Chile","lon":-70.676023,"lat":-33.204567},{"place":"Pereira (CANCELLED), Colombia","lon":-75.693431,"lat":4.813712},{"place":"Pereira (CANCELLED), Colombia","lon":-75.693431,"lat":4.813712},{"place":"Villeneuve Lez Avignon, France","lon":4.797596,"lat":43.963673},{"place":"Villeneuve Lez Avignon, France","lon":4.797596,"lat":43.963673},{"place":"Telavi, Georgia","lon":45.465275,"lat":41.92424},{"place":"Telavi, Georgia","lon":45.465275,"lat":41.92424},{"place":"Manta (CANCELLED), Ecuador","lon":-80.721147,"lat":-0.948078},{"place":"Manta (CANCELLED), Ecuador","lon":-80.721147,"lat":-0.948078},{"place":"Veldhoven, Netherlands","lon":5.40462,"lat":51.418446},{"place":"Veldhoven, Netherlands","lon":5.40462,"lat":51.418446},{"place":"PATRA, Greece","lon":21.734795,"lat":38.245506},{"place":"PATRA, Greece","lon":21.734795,"lat":38.245506},{"place":"Ofakim, Israel","lon":34.621204,"lat":31.315508},{"place":"Ofakim, Israel","lon":34.621204,"lat":31.315508},{"place":"AviléS, Spain","lon":-5.922247,"lat":43.557236},{"place":"AviléS, Spain","lon":-5.922247,"lat":43.557236},{"place":"Palermo, Italy","lon":13.360334,"lat":38.120358},{"place":"Palermo, Italy","lon":13.360334,"lat":38.120358},{"place":"Stillwater, OK (CANCELLED), USA","lon":-97.058624,"lat":36.115658},{"place":"Stillwater, OK (CANCELLED), USA","lon":-97.058624,"lat":36.115658},{"place":"Cluj-Napoca, Romania","lon":23.589823,"lat":46.770878},{"place":"Cluj-Napoca, Romania","lon":23.589823,"lat":46.770878},{"place":"Madrid (CANCELLED), Spain","lon":-3.701219,"lat":40.421345},{"place":"Madrid (CANCELLED), Spain","lon":-3.701219,"lat":40.421345},{"place":"Fossano, Italy","lon":7.72498,"lat":44.549076},{"place":"Fossano, Italy","lon":7.72498,"lat":44.549076},{"place":"Albuquerque, NM (CANCELLED), USA","lon":-106.650945,"lat":35.088192},{"place":"Albuquerque, NM (CANCELLED), USA","lon":-106.650945,"lat":35.088192},{"place":"Falkoping, Sweden","lon":13.552829,"lat":58.16942},{"place":"Falkoping, Sweden","lon":13.552829,"lat":58.16942},{"place":"Frydek Mistek, Czechia","lon":18.348515,"lat":49.685814},{"place":"Frydek Mistek, Czechia","lon":18.348515,"lat":49.685814},{"place":"El Prat De Llobregat, Spain","lon":2.0943,"lat":41.325485},{"place":"El Prat De Llobregat, Spain","lon":2.0943,"lat":41.325485},{"place":"Redding, CA (CANCELLED), USA","lon":-122.392589,"lat":40.585033},{"place":"Redding, CA (CANCELLED), USA","lon":-122.392589,"lat":40.585033},{"place":"Győr, Hungary","lon":17.634755,"lat":47.683812},{"place":"Győr, Hungary","lon":17.634755,"lat":47.683812},{"place":"Adana (CANCELLED), Turkiye","lon":35.325283,"lat":36.98583},{"place":"Adana (CANCELLED), Turkiye","lon":35.325283,"lat":36.98583},{"place":"Penina, Portugal, Portugal","lon":-7.43985,"lat":39.294016},{"place":"Penina, Portugal, Portugal","lon":-7.43985,"lat":39.294016},{"place":"Mamaia (CANCELLED), Romania","lon":28.624863,"lat":44.234924},{"place":"Mamaia (CANCELLED), Romania","lon":28.624863,"lat":44.234924},{"place":"Sandelfjord, Norway","lon":10.22401,"lat":59.132095},{"place":"Sandelfjord, Norway","lon":10.22401,"lat":59.132095},{"place":"Sainte GenevièVe Des Bois, France","lon":2.332869,"lat":48.637573},{"place":"Sainte GenevièVe Des Bois, France","lon":2.332869,"lat":48.637573},{"place":"Ashland, KY, USA","lon":-82.63881,"lat":38.479595},{"place":"Ashland, KY, USA","lon":-82.63881,"lat":38.479595},{"place":"Targu Jiu (CANCELLED), Romania","lon":23.271961,"lat":45.039013},{"place":"Targu Jiu (CANCELLED), Romania","lon":23.271961,"lat":45.039013},{"place":"Honolulu, HI, USA","lon":-157.86154,"lat":21.308498},{"place":"Honolulu, HI, USA","lon":-157.86154,"lat":21.308498},{"place":"Sobota K/Rokietnicy, Poland","lon":19.685167,"lat":52.11465},{"place":"Sobota K/Rokietnicy, Poland","lon":19.685167,"lat":52.11465},{"place":"Ekaterinburg, Russia","lon":60.59517,"lat":56.835423},{"place":"Ekaterinburg, Russia","lon":60.59517,"lat":56.835423},{"place":"Corroios-Seixal, Portugal","lon":-9.153059,"lat":38.62984},{"place":"Corroios-Seixal, Portugal","lon":-9.153059,"lat":38.62984},{"place":"Gomel, Belarus","lon":31.013542,"lat":52.427044},{"place":"Gomel, Belarus","lon":31.013542,"lat":52.427044},{"place":"Southsea (16 Main Draw, Friday Final, No Qualifying), Great Britain","lon":-0.984605,"lat":53.729491},{"place":"Southsea (16 Main Draw, Friday Final, No Qualifying), Great Britain","lon":-0.984605,"lat":53.729491},{"place":"Jarfalla (Stockholm), Sweden","lon":17.833754,"lat":59.423347},{"place":"Jarfalla (Stockholm), Sweden","lon":17.833754,"lat":59.423347},{"place":"Sunderland, Great Britain","lon":-1.382873,"lat":54.905851},{"place":"Sunderland, Great Britain","lon":-1.382873,"lat":54.905851},{"place":"Curtea de Arges (MOVED TO 25 JUNE), Romania","lon":24.676086,"lat":45.14216},{"place":"Curtea de Arges (MOVED TO 25 JUNE), Romania","lon":24.676086,"lat":45.14216},{"place":"Changsha, China, P.R.","lon":113.076057,"lat":28.248923},{"place":"Changsha, China, P.R.","lon":113.076057,"lat":28.248923},{"place":"Olecko (CANCELLED), Poland","lon":22.506405,"lat":54.037804},{"place":"Olecko (CANCELLED), Poland","lon":22.506405,"lat":54.037804},{"place":"Kiyv, Ukraine","lon":30.524136,"lat":50.450034},{"place":"Kiyv, Ukraine","lon":30.524136,"lat":50.450034},{"place":"San Severo, Italy","lon":15.380761,"lat":41.686314},{"place":"San Severo, Italy","lon":15.380761,"lat":41.686314},{"place":"Gorizia, Italy","lon":13.623595,"lat":45.942608},{"place":"Gorizia, Italy","lon":13.623595,"lat":45.942608},{"place":"Plovdiv, Bulgaria","lon":24.748371,"lat":42.148224},{"place":"Plovdiv, Bulgaria","lon":24.748371,"lat":42.148224},{"place":"La Bisbal D'Emporda, Spain","lon":3.038473,"lat":41.959694},{"place":"La Bisbal D'Emporda, Spain","lon":3.038473,"lat":41.959694},{"place":"Zetrud-Lumay, Belgium","lon":4.889965,"lat":50.759136},{"place":"Zetrud-Lumay, Belgium","lon":4.889965,"lat":50.759136},{"place":"Kaposvar, Hungary","lon":17.790546,"lat":46.355797},{"place":"Kaposvar, Hungary","lon":17.790546,"lat":46.355797},{"place":"Hillerod, Denmark","lon":12.302462,"lat":55.93003},{"place":"Hillerod, Denmark","lon":12.302462,"lat":55.93003},{"place":"Bari, Italy","lon":16.869337,"lat":41.126244},{"place":"Bari, Italy","lon":16.869337,"lat":41.126244},{"place":"Changwon (MOVED TO 21 MAY), Korea, Rep.","lon":128.681748,"lat":35.222303},{"place":"Changwon (MOVED TO 21 MAY), Korea, Rep.","lon":128.681748,"lat":35.222303},{"place":"Gothenburg, Sweden","lon":11.966936,"lat":57.703545},{"place":"Gothenburg, Sweden","lon":11.966936,"lat":57.703545},{"place":"Villa Dolores, Argentina","lon":-65.189753,"lat":-31.945788},{"place":"Villa Dolores, Argentina","lon":-65.189753,"lat":-31.945788},{"place":"Xiamen, China, P.R.","lon":118.086275,"lat":24.47891},{"place":"Xiamen, China, P.R.","lon":118.086275,"lat":24.47891},{"place":"Palmanova - Mallorca, Spain","lon":2.983333,"lat":39.616667},{"place":"Palmanova - Mallorca, Spain","lon":2.983333,"lat":39.616667},{"place":"Grenoble (MOVED TO 5 FEB), France","lon":7.657056,"lat":45.226967},{"place":"Grenoble (MOVED TO 5 FEB), France","lon":7.657056,"lat":45.226967},{"place":"Raananna, Israel","lon":34.87611,"lat":32.180256},{"place":"Raananna, Israel","lon":34.87611,"lat":32.180256},{"place":"Playford, Australia","lon":153.076699,"lat":-30.359356},{"place":"Playford, Australia","lon":153.076699,"lat":-30.359356},{"place":"Sanxenxo - Pontevedra, Spain","lon":-8.806865,"lat":42.40019},{"place":"Sanxenxo - Pontevedra, Spain","lon":-8.806865,"lat":42.40019},{"place":"Ankara (CANCELLED), Turkiye","lon":32.854183,"lat":39.920856},{"place":"Ankara (CANCELLED), Turkiye","lon":32.854183,"lat":39.920856},{"place":"Santa Ponsa, Spain","lon":2.482501,"lat":39.514904},{"place":"Santa Ponsa, Spain","lon":2.482501,"lat":39.514904},{"place":"Limassol, Cyprus","lon":33.032833,"lat":34.68534},{"place":"Limassol, Cyprus","lon":33.032833,"lat":34.68534},{"place":"Nashville, TN (CANCELLED), USA","lon":-86.781075,"lat":36.164516},{"place":"Nashville, TN (CANCELLED), USA","lon":-86.781075,"lat":36.164516},{"place":"Adazi, Latvia","lon":24.322811,"lat":57.076733},{"place":"Adazi, Latvia","lon":24.322811,"lat":57.076733},{"place":"Shenzhen (MOVED TO 6 NOV), China, P.R.","lon":-6.566271,"lat":41.323574},{"place":"Shenzhen (MOVED TO 6 NOV), China, P.R.","lon":-6.566271,"lat":41.323574},{"place":"Encarnacion, Paraguay","lon":-55.866716,"lat":-27.330446},{"place":"Encarnacion, Paraguay","lon":-55.866716,"lat":-27.330446},{"place":"Svyatopetrivske, Ukraine","lon":31.320283,"lat":49.322794},{"place":"Svyatopetrivske, Ukraine","lon":31.320283,"lat":49.322794},{"place":"Irpin, Ukraine","lon":30.24429,"lat":50.519375},{"place":"Irpin, Ukraine","lon":30.24429,"lat":50.519375},{"place":"Szczawno Zdroj, Poland","lon":16.25153,"lat":50.800799},{"place":"Szczawno Zdroj, Poland","lon":16.25153,"lat":50.800799},{"place":"Cantanduva (MOVED TO 27 NOV), Brazil","lon":-46.4383,"lat":-12.406003},{"place":"Cantanduva (MOVED TO 27 NOV), Brazil","lon":-46.4383,"lat":-12.406003},{"place":"Krakow, Poland","lon":19.937975,"lat":50.062325},{"place":"Krakow, Poland","lon":19.937975,"lat":50.062325},{"place":"Bucha, Ukraine","lon":30.212479,"lat":50.54946},{"place":"Bucha, Ukraine","lon":30.212479,"lat":50.54946},{"place":"Sant Cugat, Spain","lon":2.812116,"lat":41.933546},{"place":"Sant Cugat, Spain","lon":2.812116,"lat":41.933546},{"place":"Enka Spor KulÜBÜ, Sadİ GÜLÇElİK Spor SİTesİ, 34460, Turkiye","lon":29.054101,"lat":41.113757},{"place":"Enka Spor KulÜBÜ, Sadİ GÜLÇElİK Spor SİTesİ, 34460, Turkiye","lon":29.054101,"lat":41.113757},{"place":"Renningen, Germany","lon":8.934218,"lat":48.764557},{"place":"Renningen, Germany","lon":8.934218,"lat":48.764557},{"place":"Tyler, TX, USA","lon":-95.300644,"lat":32.35164},{"place":"Tyler, TX, USA","lon":-95.300644,"lat":32.35164},{"place":"Valladolid, Spain","lon":-4.726678,"lat":41.652332},{"place":"Valladolid, Spain","lon":-4.726678,"lat":41.652332},{"place":"Cherboug-en-Cotentin, France","lon":-1.623819,"lat":49.639427},{"place":"Cherboug-en-Cotentin, France","lon":-1.623819,"lat":49.639427},{"place":"Templeton, CA, USA","lon":-120.7064,"lat":35.548157},{"place":"Templeton, CA, USA","lon":-120.7064,"lat":35.548157},{"place":"Le Touquet, France","lon":1.584582,"lat":50.524002},{"place":"Le Touquet, France","lon":1.584582,"lat":50.524002},{"place":"Telavi (MOVED TO 27 NOV), Georgia","lon":45.465275,"lat":41.92424},{"place":"Telavi (MOVED TO 27 NOV), Georgia","lon":45.465275,"lat":41.92424},{"place":"Todi, Italy","lon":12.406307,"lat":42.782707},{"place":"Todi, Italy","lon":12.406307,"lat":42.782707},{"place":"Gdansk, Poland","lon":18.650743,"lat":54.350178},{"place":"Gdansk, Poland","lon":18.650743,"lat":54.350178},{"place":"Penrith, Australia","lon":150.694443,"lat":-33.750544},{"place":"Penrith, Australia","lon":150.694443,"lat":-33.750544},{"place":"Hilleroed, Denmark","lon":12.302462,"lat":55.93003},{"place":"Hilleroed, Denmark","lon":12.302462,"lat":55.93003},{"place":"Dobrich (CANCELLED), Bulgaria","lon":27.829117,"lat":43.569813},{"place":"Dobrich (CANCELLED), Bulgaria","lon":27.829117,"lat":43.569813},{"place":"Alphen A/D Rijn (CANCELLED), Netherlands","lon":11.199616,"lat":51.152758},{"place":"Alphen A/D Rijn (CANCELLED), Netherlands","lon":11.199616,"lat":51.152758},{"place":"Augsburg, Germany","lon":10.897016,"lat":48.367977},{"place":"Augsburg, Germany","lon":10.897016,"lat":48.367977},{"place":"Kaunas, Lithuania","lon":23.904482,"lat":54.898214},{"place":"Kaunas, Lithuania","lon":23.904482,"lat":54.898214},{"place":"Verbier/Chable (CANCELLED), Switzerland","lon":7.229043,"lat":46.096066},{"place":"Verbier/Chable (CANCELLED), Switzerland","lon":7.229043,"lat":46.096066},{"place":"Zell Am See, Austria","lon":12.798367,"lat":47.323536},{"place":"Zell Am See, Austria","lon":12.798367,"lat":47.323536},{"place":"Badenweiler, Germany","lon":7.671917,"lat":47.801712},{"place":"Badenweiler, Germany","lon":7.671917,"lat":47.801712},{"place":"Italy, Italy","lon":-77.278811,"lat":42.63709},{"place":"Bistrita, Romania","lon":24.498774,"lat":47.133495},{"place":"Nanao, Japan","lon":136.947194,"lat":37.050951},{"place":"Nanao, Japan","lon":136.947194,"lat":37.050951},{"place":"Pozoblanco (Cordoba), Spain","lon":-4.849682,"lat":38.381065},{"place":"Italy, Italy","lon":-77.278811,"lat":42.63709},{"place":"Artvin, Turkiye","lon":41.820477,"lat":41.18128},{"place":"Artvin, Turkiye","lon":41.820477,"lat":41.18128},{"place":"Bistrita, Romania","lon":24.498774,"lat":47.133495},{"place":"Dueren, Germany","lon":6.483711,"lat":50.802837},{"place":"Montreux, Switzerland","lon":6.910115,"lat":46.433422},{"place":"Montreux, Switzerland","lon":6.910115,"lat":46.433422},{"place":"Ivano-Frankivsk, Ukraine","lon":24.710319,"lat":48.922522},{"place":"Ivano-Frankivsk, Ukraine","lon":24.710319,"lat":48.922522},{"place":"Pozoblanco (Cordoba), Spain","lon":-4.849682,"lat":38.381065},{"place":"Krems An Der Donau, Austria","lon":15.60058,"lat":48.41126},{"place":"Rome (CANCELLED), Italy","lon":12.476713,"lat":41.899986},{"place":"Rome (CANCELLED), Italy","lon":12.476713,"lat":41.899986},{"place":"Dueren, Germany","lon":6.483711,"lat":50.802837},{"place":"Krems An Der Donau, Austria","lon":15.60058,"lat":48.41126},{"place":"Curtea De Arges, Romania","lon":24.676086,"lat":45.14216},{"place":"Curtea De Arges, Romania","lon":24.676086,"lat":45.14216},{"place":"Porto (MOVED TO 31 JULY & DOWNGRADED), Portugal","lon":-8.611286,"lat":41.14789},{"place":"Porto (MOVED TO 31 JULY & DOWNGRADED), Portugal","lon":-8.611286,"lat":41.14789},{"place":"Oosterbeek, Netherlands","lon":5.84507,"lat":51.987076},{"place":"Oosterbeek, Netherlands","lon":5.84507,"lat":51.987076},{"place":"Telavi (MOVED TO 25 SEPT), Georgia","lon":45.465275,"lat":41.92424},{"place":"Telavi (MOVED TO 25 SEPT), Georgia","lon":45.465275,"lat":41.92424},{"place":"Jablonec Nad Nisou, Czechia","lon":15.171606,"lat":50.72383},{"place":"Jablonec Nad Nisou, Czechia","lon":15.171606,"lat":50.72383},{"place":"Sao Jose Dos Campos (CANCELLED), Brazil","lon":-45.885987,"lat":-23.188712},{"place":"Sao Jose Dos Campos (CANCELLED), Brazil","lon":-45.885987,"lat":-23.188712},{"place":"Hong Kong (MOVED TO 24 JULY), Hong Kong, China","lon":68.760307,"lat":40.940637},{"place":"Hong Kong (MOVED TO 24 JULY), Hong Kong, China","lon":68.760307,"lat":40.940637},{"place":"Portorož, Slovenia","lon":13.590121,"lat":45.513596},{"place":"Portorož, Slovenia","lon":13.590121,"lat":45.513596},{"place":"Iasi (CANCELLED), Romania","lon":27.583376,"lat":47.161655},{"place":"Iasi (CANCELLED), Romania","lon":27.583376,"lat":47.161655},{"place":"48161 Muenster, Germany","lon":7.56043,"lat":51.998863},{"place":"48161 Muenster, Germany","lon":7.56043,"lat":51.998863},{"place":"Hong Kong (CANCELLED), Hong Kong, China","lon":114.16255,"lat":22.279356},{"place":"Hong Kong (CANCELLED), Hong Kong, China","lon":114.16255,"lat":22.279356},{"place":"Saint-Valery-En-Caux, France","lon":0.710877,"lat":49.859795},{"place":"Saint-Valery-En-Caux, France","lon":0.710877,"lat":49.859795},{"place":"Auburn, AL, USA","lon":-85.48173,"lat":32.60655},{"place":"Auburn, AL, USA","lon":-85.48173,"lat":32.60655},{"place":"Southsea, Great Britain","lon":-1.076567,"lat":50.78666},{"place":"Southsea, Great Britain","lon":-1.076567,"lat":50.78666},{"place":"San Marino, San Marino","lon":12.446699,"lat":43.9364},{"place":"San Marino, San Marino","lon":12.446699,"lat":43.9364},{"place":"Eindhoven, Netherlands","lon":5.480267,"lat":51.43773},{"place":"Eindhoven, Netherlands","lon":5.480267,"lat":51.43773},{"place":"Daegu (CANCELLED), Korea, Rep.","lon":22.311413,"lat":3.730664},{"place":"Daegu (CANCELLED), Korea, Rep.","lon":22.311413,"lat":3.730664},{"place":"Hoersholm, Denmark","lon":12.497591,"lat":55.88061},{"place":"Hoersholm, Denmark","lon":12.497591,"lat":55.88061},{"place":"Guimaraes, Portugal","lon":-8.291792,"lat":41.442554},{"place":"Guimaraes, Portugal","lon":-8.291792,"lat":41.442554},{"place":"Birkeroed, Denmark","lon":12.43122,"lat":55.840675},{"place":"Birkeroed, Denmark","lon":12.43122,"lat":55.840675},{"place":"Manchester, Great Britain","lon":-2.245115,"lat":53.479489},{"place":"Manchester, Great Britain","lon":-2.245115,"lat":53.479489},{"place":"Portimao, Portugal","lon":-8.536365,"lat":37.13733},{"place":"Portimao, Portugal","lon":-8.536365,"lat":37.13733},{"place":"Albena, Bulgaria","lon":28.064451,"lat":43.36707},{"place":"Mostar, Bosnia and Herzegovina","lon":17.813868,"lat":43.33694},{"place":"Albena, Bulgaria","lon":28.064451,"lat":43.36707},{"place":"Stare Splavy, Czechia","lon":14.632327,"lat":50.589421},{"place":"Stare Splavy, Czechia","lon":14.632327,"lat":50.589421},{"place":"PéCs, Hungary","lon":18.22842,"lat":46.075485},{"place":"Figueira Da Foz, Portugal","lon":-8.863923,"lat":40.149933},{"place":"Figueira Da Foz, Portugal","lon":-8.863923,"lat":40.149933},{"place":"Mostar, Bosnia and Herzegovina","lon":17.813868,"lat":43.33694},{"place":"Paphos, Cyprus","lon":32.421844,"lat":34.77533},{"place":"Montemor-O-Novo, Portugal","lon":-8.21582,"lat":38.64743},{"place":"Montemor-O-Novo, Portugal","lon":-8.21582,"lat":38.64743},{"place":"PéCs, Hungary","lon":18.22842,"lat":46.075485},{"place":"Le Passage D'Agen, France","lon":0.661415,"lat":44.151277},{"place":"Paphos, Cyprus","lon":32.421844,"lat":34.77533},{"place":"Benavides, Argentina","lon":-58.69012,"lat":-34.412303},{"place":"Benavides, Argentina","lon":-58.69012,"lat":-34.412303},{"place":"NikšIć, Montenegro","lon":18.94881,"lat":42.773939},{"place":"Le Passage D'Agen, France","lon":0.661415,"lat":44.151277},{"place":"Larnaca, Cyprus","lon":33.624577,"lat":34.92239},{"place":"Santarem, Portugal","lon":-8.685158,"lat":39.236744},{"place":"Santarem, Portugal","lon":-8.685158,"lat":39.236744},{"place":"NikšIć, Montenegro","lon":18.94881,"lat":42.773939},{"place":"Larnaca, Cyprus","lon":33.624577,"lat":34.92239},{"place":"Shymkent (MOVED TO 10 APRIL), Kazakhstan","lon":69.588328,"lat":42.314696},{"place":"Shymkent (MOVED TO 10 APRIL), Kazakhstan","lon":69.588328,"lat":42.314696},{"place":"Tirane, Albania","lon":19.81611,"lat":41.320507},{"place":"Tirane, Albania","lon":19.81611,"lat":41.320507},{"place":"Jaffo, Israel","lon":35.215095,"lat":31.784631},{"place":"Jaffo, Israel","lon":35.215095,"lat":31.784631},{"place":"Sao Jose Do Rio Preto (MOVED TO 3 APRIL), Brazil","lon":-49.380909,"lat":-20.813797},{"place":"Sao Jose Do Rio Preto (MOVED TO 3 APRIL), Brazil","lon":-49.380909,"lat":-20.813797},{"place":"Kopavogi, Iceland","lon":-18.605467,"lat":64.997588},{"place":"Kopavogi, Iceland","lon":-18.605467,"lat":64.997588},{"place":"Obidos, Portugal","lon":-9.157808,"lat":39.359604},{"place":"Obidos, Portugal","lon":-9.157808,"lat":39.359604},{"place":"Quanzhou (MOVED TO 27 MARCH), China, P.R.","lon":7.682489,"lat":45.067755},{"place":"Quanzhou (MOVED TO 27 MARCH), China, P.R.","lon":7.682489,"lat":45.067755},{"place":"Iraklio, Greece","lon":25.132599,"lat":35.339375},{"place":"Iraklio, Greece","lon":25.132599,"lat":35.339375},{"place":"Sainte-Genevieve-Des-Bois, France","lon":2.332869,"lat":48.637573},{"place":"Sainte-Genevieve-Des-Bois, France","lon":2.332869,"lat":48.637573},{"place":"Yokohama, Japan","lon":139.635784,"lat":35.445794},{"place":"Yokohama, Japan","lon":139.635784,"lat":35.445794},{"place":"Le Chambon-Sur-Lignon, France","lon":4.302439,"lat":45.06039},{"place":"Le Chambon-Sur-Lignon, France","lon":4.302439,"lat":45.06039},{"place":"Solapur, India","lon":75.904741,"lat":17.676899},{"place":"Solapur, India","lon":75.904741,"lat":17.676899},{"place":"Khanty Mansiysk, Russia","lon":69.0169,"lat":61.004116},{"place":"Khanty Mansiysk, Russia","lon":69.0169,"lat":61.004116},{"place":"Djibouti, Djibouti","lon":43.147272,"lat":11.59369},{"place":"Djibouti, Djibouti","lon":43.147272,"lat":11.59369},{"place":"Khanty-Mansiysk, Russia","lon":69.0169,"lat":61.004116},{"place":"Khanty-Mansiysk, Russia","lon":69.0169,"lat":61.004116},{"place":"Santiago  (CANCELLED), Chile","lon":-70.649365,"lat":-33.440645},{"place":"Santiago  (CANCELLED), Chile","lon":-70.649365,"lat":-33.440645},{"place":"Odos, France","lon":0.058045,"lat":43.197514},{"place":"Odos, France","lon":0.058045,"lat":43.197514},{"place":"Cordenons, Italy","lon":12.707289,"lat":45.98858},{"place":"Cordenons, Italy","lon":12.707289,"lat":45.98858},{"place":"Goteborg, Sweden","lon":11.966936,"lat":57.703545},{"place":"Goteborg, Sweden","lon":11.966936,"lat":57.703545},{"place":"Nashville, TN, USA","lon":-86.781075,"lat":36.164516},{"place":"Nashville, TN, USA","lon":-86.781075,"lat":36.164516},{"place":"Margarita (CANCELLED), Venezuela","lon":-63.935556,"lat":10.986944},{"place":"Margarita (CANCELLED), Venezuela","lon":-63.935556,"lat":10.986944},{"place":"Cucuta, Colombia","lon":-72.499565,"lat":7.886615},{"place":"Cucuta, Colombia","lon":-72.499565,"lat":7.886615},{"place":"Szczawno ZdróJ, Poland","lon":16.25153,"lat":50.800799},{"place":"Szczawno ZdróJ, Poland","lon":16.25153,"lat":50.800799},{"place":"Oradea, Romania","lon":21.93059,"lat":47.055992},{"place":"Oradea, Romania","lon":21.93059,"lat":47.055992},{"place":"Sarajevo, Bosnia and Herzegovina","lon":18.38529,"lat":43.85251},{"place":"Sarajevo, Bosnia and Herzegovina","lon":18.38529,"lat":43.85251},{"place":"Aridea, Greece","lon":22.0636,"lat":40.97467},{"place":"Aridea, Greece","lon":22.0636,"lat":40.97467},{"place":"Chenzhou, China, P.R.","lon":113.031494,"lat":25.793523},{"place":"Chenzhou, China, P.R.","lon":113.031494,"lat":25.793523},{"place":"Ivano-Frankivsk, Ukraine","lon":24.710319,"lat":48.922522},{"place":"Ivano-Frankivsk, Ukraine","lon":24.710319,"lat":48.922522},{"place":"Nantes (CANCELLED), France","lon":-1.551244,"lat":47.218183},{"place":"Nantes (CANCELLED), France","lon":-1.551244,"lat":47.218183},{"place":"Koufalia, Greece","lon":22.578054,"lat":40.77788},{"place":"Koufalia, Greece","lon":22.578054,"lat":40.77788},{"place":"Liuzhou, China, P.R.","lon":109.423133,"lat":24.327733},{"place":"Liuzhou, China, P.R.","lon":109.423133,"lat":24.327733},{"place":"İStanbul, Turkiye","lon":28.966219,"lat":41.009198},{"place":"İStanbul, Turkiye","lon":28.966219,"lat":41.009198},{"place":"Rutesheim, Germany","lon":8.946124,"lat":48.808277},{"place":"Rutesheim, Germany","lon":8.946124,"lat":48.808277},{"place":"Granville, France","lon":-1.595215,"lat":48.838316},{"place":"Granville, France","lon":-1.595215,"lat":48.838316},{"place":"Dubai (MOVED TO 12 DEC & UPGRADED TO $100K+H), United Arab Emirates","lon":55.297558,"lat":25.25809},{"place":"Dubai (MOVED TO 12 DEC & UPGRADED TO $100K+H), United Arab Emirates","lon":55.297558,"lat":25.25809},{"place":"Kilkis, Greece","lon":22.874334,"lat":40.99284},{"place":"Kilkis, Greece","lon":22.874334,"lat":40.99284},{"place":"Florence, SC (CANCELLED), USA","lon":-79.76818,"lat":34.197235},{"place":"Florence, SC (CANCELLED), USA","lon":-79.76818,"lat":34.197235},{"place":"Rivne Region, Ukraine","lon":26.250486,"lat":50.61937},