[{"place":"Tel Aviv-Yafo, Israel","lon":34.7819,"lat":32.08532},{"place":"Den Haag, Netherlands","lon":4.316776,"lat":52.076885},{"place":"SERRES, Greece","lon":23.54906,"lat":41.09063},{"place":"Alexandroupoli, Greece","lon":25.874811,"lat":40.84517},{"place":"IGOUMENITSA, Greece","lon":20.263632,"lat":39.500942},{"place":"Sant Just Desvern - Barcelona, Spain","lon":2.074248,"lat":41.369351},{"place":"Istambul, Turkiye","lon":28.966219,"lat":41.009198},{"place":"Natanya, Israel","lon":34.858288,"lat":32.32812},{"place":"Greystones, Ireland","lon":-6.062679,"lat":53.144604},{"place":"La CoruñA, Spain","lon":-8.401512,"lat":43.369846},{"place":"ILIOUPOLIS-ATHENS, Greece","lon":-77.686778,"lat":43.220566},{"place":"Canovelles - Barcelona, Spain","lon":2.282065,"lat":41.6165},{"place":"Chisisnau, Moldova","lon":28.837374,"lat":47.02416},{"place":"Passau, Germany","lon":13.460946,"lat":48.574356},{"place":"Chalkida, Greece","lon":23.59226,"lat":38.464054},{"place":"Vyshkovo, Ukraine","lon":25.508366,"lat":42.874166},{"place":"Spisska Nova Ves, Slovakia","lon":20.568373,"lat":48.943666},{"place":"Polykastro, Greece","lon":22.570047,"lat":40.99645},{"place":"Agno, Switzerland","lon":8.899388,"lat":45.996895},{"place":"Saint-Valery en Caux, France","lon":0.710877,"lat":49.859795},{"place":"Lyon, France","lon":4.832619,"lat":45.766106},{"place":"Aldershot, Great Britain","lon":-0.765111,"lat":51.24852},{"place":"Vadu Lui Voda, Moldova","lon":29.08015,"lat":47.087486},{"place":"Germany, Germany","lon":12.437765,"lat":51.330419},{"place":"Linz, Austria","lon":14.284805,"lat":48.305813},{"place":"Focsani, Romania","lon":27.187082,"lat":45.69688},{"place":"Hamburg, Germany","lon":10.000654,"lat":53.550341},{"place":"Ridderkerk, Netherlands","lon":4.599886,"lat":51.870556},{"place":"Soon, Norway","lon":-70.531025,"lat":44.212965},{"place":"Pully, Switzerland","lon":6.661985,"lat":46.511177},{"place":"GPT Eindhoven, Netherlands","lon":5.480267,"lat":51.43773},{"place":"177 Colinton Road Edinburgh, Great Britain","lon":-3.23418,"lat":55.92294},{"place":"Cap D'Agde, France","lon":3.511705,"lat":43.284826},{"place":"Mamaia-Constanta, Romania","lon":28.624863,"lat":44.234924},{"place":"Szczawno-Zdroj, Poland","lon":16.25153,"lat":50.800799},{"place":"Arada, Romania","lon":21.319634,"lat":46.175379},{"place":"Campulung-Arges, Romania","lon":25.04515,"lat":45.271755},{"place":"Tsaghadzor, Armenia","lon":44.720157,"lat":40.533547},{"place":"Kääriku, 67309 Valga County, Estonia","lon":26.39286,"lat":58.004326},{"place":"Wien, Alt-Erlaa, Austria","lon":14.570296,"lat":48.199379},{"place":"Tsaghkadzor, Armenia","lon":44.720157,"lat":40.533547},{"place":"ČAkovec, Croatia","lon":16.438461,"lat":46.38983},{"place":"Slobozia, Romania","lon":27.36089,"lat":44.56215},{"place":"Plas Coch Road. Wrexham, Great Britain","lon":-3.006027,"lat":53.055688},{"place":"Maria Lanzendorf, Austria","lon":16.42295,"lat":48.10019},{"place":"Thessaloniki, Greece","lon":22.944689,"lat":40.633987},{"place":"Belfast, Ireland","lon":-5.930276,"lat":54.596441},{"place":"Marathon, Greece","lon":23.958847,"lat":38.15858},{"place":"Heraklio, Greece","lon":25.132599,"lat":35.339375},{"place":"Grodzisk Mazowiecki, Poland","lon":20.621374,"lat":52.105446},{"place":"Grodzisk Mazowiecki , Poland","lon":20.621374,"lat":52.105446},{"place":"Badhoevedorp, Netherlands","lon":4.780329,"lat":52.336018},{"place":"Main Draw - Wavertree Sports Park, Wellington Road, Great Britain","lon":-3.227461,"lat":50.97856},{"place":"Bieruńska 78, Poland","lon":18.964746,"lat":49.992029},{"place":"Altamura, Italy","lon":16.553131,"lat":40.82713},{"place":"Kottingbrunn, Austria","lon":16.228294,"lat":47.951244},{"place":"Rafina, Greece","lon":24.00699,"lat":38.02031},{"place":"Leszno, Poland","lon":16.573608,"lat":51.84305},{"place":"Manacor, Spain","lon":3.210062,"lat":39.569073},{"place":"Villena, Spain","lon":-0.86499,"lat":38.631847},{"place":"Grodisk Mazowiecki, Poland","lon":20.621374,"lat":52.105446},{"place":"Ancient Olympia, Greece","lon":25.942976,"lat":38.24721},{"place":"Larnaka, Cyprus","lon":33.624577,"lat":34.92239},{"place":"Alexandroupolis, Greece","lon":25.874811,"lat":40.84517},{"place":"Schaan, Liechtenstein","lon":9.510312,"lat":47.16634},{"place":"Telde, Spain","lon":-15.416629,"lat":27.99698},{"place":"Winterthur, Switzerland","lon":8.72794,"lat":47.498177},{"place":"Parma, Italy","lon":10.327724,"lat":44.80219},{"place":"ILIOUPOLI, Greece","lon":23.756346,"lat":37.93241},{"place":"Marbella, Spain","lon":-4.886694,"lat":36.50932},{"place":"CORINTH, Greece","lon":22.932586,"lat":37.938168},{"place":"Pontevedra, Spain","lon":-8.644912,"lat":42.432796},{"place":"VERIA (MAKROCHORI IMATHIAS), Greece","lon":22.205149,"lat":40.52367},{"place":"A Coruna, Spain","lon":-8.401512,"lat":43.369846},{"place":"Warsaw, Poland","lon":21.016317,"lat":52.23072},{"place":"Aesh/Alzette, Luxembourg","lon":6.087814,"lat":49.770628},{"place":"La Nucia, Spain","lon":-0.125965,"lat":38.614277},{"place":"Vienna, Austria","lon":16.372504,"lat":48.208354},{"place":"Velletri, Italy","lon":12.777215,"lat":41.68756},{"place":"Zams, Austria","lon":10.589427,"lat":47.157562},{"place":"Renningen/Rutesheim, Germany","lon":8.946124,"lat":48.808277},{"place":"Nancy, France","lon":6.181829,"lat":48.694298},{"place":"Vichy, France","lon":3.424706,"lat":46.125134},{"place":"Bern, Switzerland","lon":7.443638,"lat":46.948715},{"place":"ĐAkovo, Croatia","lon":18.409388,"lat":45.309837},{"place":"Yereva, Armenia","lon":44.512617,"lat":40.177625},{"place":"Vadul lu Voda, Moldova","lon":29.08015,"lat":47.087486},{"place":"Fuerth, Germany","lon":10.98973,"lat":49.477271},{"place":"Ostrava, Czechia","lon":18.289057,"lat":49.835354},{"place":"Reading, Great Britain","lon":-0.972165,"lat":51.455647},{"place":"Zilina, Slovakia","lon":18.740925,"lat":49.223885},{"place":"Stobreč, Croatia","lon":16.522401,"lat":43.502427},{"place":"Fredrikstad, Norway","lon":10.938404,"lat":59.212574},{"place":"Marnes-La-Coquette, France","lon":2.178582,"lat":48.830555},{"place":"Mugla, Turkiye","lon":28.364044,"lat":37.21527},{"place":"Wielkopolska, Poland","lon":23.455345,"lat":51.164429},{"place":"Denizli, Turkiye","lon":29.097034,"lat":37.782326},{"place":"Zvolen, Slovakia","lon":19.126575,"lat":48.576653},{"place":"Mamaia,Constanta, Romania","lon":28.624863,"lat":44.234924},{"place":"Roehampton, London, Great Britain","lon":-0.240176,"lat":51.449693},{"place":"Celje, Slovenia","lon":15.261683,"lat":46.229389},{"place":"Tsakhadzor, Armenia","lon":44.720157,"lat":40.533547},{"place":"Craiova, Romania","lon":23.799028,"lat":44.317547},{"place":"Cluj, Romania","lon":23.589954,"lat":46.769379},{"place":"Tolentino, Italy","lon":13.28451,"lat":43.208946},{"place":"Mogyorod, Hungary","lon":19.240541,"lat":47.59756},{"place":"KääRiku, Estonia","lon":26.39286,"lat":58.004326},{"place":"MöDling, Austria","lon":16.284246,"lat":48.085945},{"place":"Vadu lui Voda, Moldova","lon":29.08015,"lat":47.087486},{"place":"Arta, Greece","lon":20.987017,"lat":39.161777},{"place":"Bielsko-BiałA, Poland","lon":19.046837,"lat":49.823215},{"place":"Gurb - Vic (Barcelona), Spain","lon":2.252151,"lat":41.932482},{"place":"Veli LošInj, Croatia","lon":14.501717,"lat":44.521069},{"place":"Thessalonik, Greece","lon":22.944689,"lat":40.633987},{"place":"Niederzier, Germany","lon":6.465122,"lat":50.883427},{"place":"Chambon-Sur-Lignon, France","lon":4.302439,"lat":45.06039},{"place":"Svedala, Sweden","lon":13.236707,"lat":55.508694},{"place":"Poznan, Poland","lon":16.93123,"lat":52.407333},{"place":"Neudörfl, Austria","lon":16.29786,"lat":47.796061},{"place":"Feucherolles, France","lon":1.974202,"lat":48.874523},{"place":"Breclav, Czechia","lon":16.881907,"lat":48.759174},{"place":"Pszczyna, Poland","lon":18.943947,"lat":49.977715},{"place":"Lleida, Spain","lon":0.619437,"lat":41.618828},{"place":"Bielsko Biala, Poland","lon":19.046837,"lat":49.823215},{"place":"Heraklion, Greece","lon":25.132599,"lat":35.339375},{"place":"Gent, Belgium","lon":3.725012,"lat":51.053829},{"place":"Roquebrune-Cap-Martin, France","lon":7.456426,"lat":43.764496},{"place":"Heerenveen, Netherlands","lon":5.924176,"lat":52.96026},{"place":"Kreuzlingen, Switzerland","lon":9.170841,"lat":47.644626},{"place":"Escaldes, Andorra","lon":2.696003,"lat":43.22327},{"place":"Varna, Bulgaria","lon":27.914743,"lat":43.206253},{"place":"Marbella - MáLaga, Spain","lon":-4.611549,"lat":36.733677},{"place":"Frankfurt Am Main, Germany","lon":8.683012,"lat":50.110596},{"place":"Van, Turkiye","lon":43.394657,"lat":38.500847},{"place":"Shkoder, Albania","lon":19.51373,"lat":42.06696},{"place":"Erzincan, Turkiye","lon":39.490852,"lat":39.746803},{"place":"Villeneuve-Loubet, France","lon":7.121911,"lat":43.657425},{"place":"Otura - Granada, Spain","lon":-3.581879,"lat":37.102227},{"place":"Praha, Czechia","lon":14.422954,"lat":50.08584},{"place":"Ajaccio (SARROLA CARCOPINO), France","lon":8.842432,"lat":42.02823},{"place":"Malahide, Ireland","lon":-6.153619,"lat":53.450737},{"place":"Grevenmacher, Luxembourg","lon":6.442727,"lat":49.67832},{"place":"Hampshire, Great Britain","lon":-1.316242,"lat":51.063354},{"place":"Rhodes, Greece","lon":28.227915,"lat":36.44352},{"place":"Saint-Valéry-en-Caux, France","lon":0.710877,"lat":49.859795},{"place":"Prerov, Czechia","lon":17.451511,"lat":49.45419},{"place":"Mol, Belgium","lon":5.115527,"lat":51.184042},{"place":"Carrigaline, Ireland","lon":-8.391936,"lat":51.81477},{"place":"Derby, Repton, Great Britain","lon":-1.550555,"lat":52.839738},{"place":"La Baule-Escoublac, France","lon":-2.391655,"lat":47.28616},{"place":"MUGLA, Turkiye","lon":28.364044,"lat":37.21527},{"place":"Waterford, Ireland","lon":-7.111908,"lat":52.261},{"place":"Otočec, Slovenia","lon":15.222154,"lat":45.833633},{"place":"Bydgoszcz, Poland","lon":18.000923,"lat":53.121468},{"place":"Ramat Ha Sharon, Israel","lon":34.838486,"lat":32.145855},{"place":"VierumäKi, Finland","lon":25.930548,"lat":61.106174},{"place":"Roma, Italy","lon":12.476713,"lat":41.899986},{"place":"BirkerøD, Denmark","lon":12.43122,"lat":55.840675},{"place":"Jurmalas Parks 5, Latvia","lon":20.995399,"lat":56.503341},{"place":"Roehampton, Great Britain","lon":-0.240176,"lat":51.449693},{"place":"Iasi, Romania","lon":27.583376,"lat":47.161655},{"place":"Toletino, Italy","lon":13.28451,"lat":43.208946},{"place":"Le Passage, France","lon":0.605087,"lat":44.202866},{"place":"Sirnak, Turkiye","lon":42.457203,"lat":37.520496},{"place":"Bielsko-Biała, Poland","lon":19.046837,"lat":49.823215},{"place":"Madrid, Spain","lon":-3.701219,"lat":40.421345},{"place":"DIJON, France","lon":5.041008,"lat":47.32223},{"place":"Sainte Genevieve Des Bois, France","lon":2.332869,"lat":48.637573},{"place":"Hoofddorp, Netherlands","lon":4.693486,"lat":52.303905},{"place":"Le-Chambon-Sur-Lignon, France","lon":4.302439,"lat":45.06039},{"place":"VÄNERSBORG, Sweden","lon":12.322512,"lat":58.37961},{"place":"Marcq-en-Baroeul, France","lon":3.104213,"lat":50.675613},{"place":"OSLO, Norway","lon":10.73897,"lat":59.91333},{"place":"Norrköping, Sweden","lon":16.185743,"lat":58.590572},{"place":"Liberec, Czechia","lon":15.058041,"lat":50.769377},{"place":"Manacor - Mallorca, Spain","lon":3.20286,"lat":39.565921},{"place":"Platja D'Aro - Girona, Spain","lon":3.068929,"lat":41.81794},{"place":"Le Bouscat, France","lon":-0.599128,"lat":44.866028},{"place":"ŠIroki Brijeg, Bosnia and Herzegovina","lon":17.593794,"lat":43.383293},{"place":"Aizkraukle, Latvia","lon":25.25374,"lat":56.60076},{"place":"Santa Ponsa - Mallorca, Spain","lon":2.482501,"lat":39.514904},{"place":"Split, Croatia","lon":16.438787,"lat":43.508186},{"place":"Serres, Greece","lon":23.54906,"lat":41.09063},{"place":"Monte-Carlo, Monaco","lon":7.4256,"lat":43.740444},{"place":"Höhr-Grenzhausen, Germany","lon":7.669444,"lat":50.437466},{"place":"KøBenhavn, Denmark","lon":12.569734,"lat":55.675313},{"place":"Waterloo, Belgium","lon":4.396367,"lat":50.715373},{"place":"Kalymnos, Greece","lon":26.984667,"lat":36.949768},{"place":"Otura, Granada, Spain","lon":-3.581879,"lat":37.102227},{"place":"Oetwil Am See, Switzerland","lon":8.721687,"lat":47.27057},{"place":"Esch/Alzette, Luxembourg","lon":5.981181,"lat":49.493935},{"place":"Rome, Italy","lon":12.476713,"lat":41.899986},{"place":"Crete, Greece","lon":25.134348,"lat":35.340013},{"place":"Repton, Great Britain","lon":-1.550555,"lat":52.839738},{"place":"Karlovac, Croatia","lon":15.551891,"lat":45.494083},{"place":"Hertfordshire, Great Britain","lon":-0.398881,"lat":51.655445},{"place":"Etten-Leur, Netherlands","lon":4.63542,"lat":51.568466},{"place":"Forlì, Italy","lon":12.040021,"lat":44.22238},{"place":"La Baule, France","lon":2.092483,"lat":45.642262},{"place":"Imperia, Italy","lon":8.039931,"lat":43.890068},{"place":"Lasne, Belgium","lon":4.484416,"lat":50.686004},{"place":"Borne, Netherlands","lon":6.756704,"lat":52.300728},{"place":"Novo Mesto, Slovenia","lon":15.169668,"lat":45.804048},{"place":"Valencia, Spain","lon":-0.375984,"lat":39.47132},{"place":"Velenje, Slovenia","lon":15.11503,"lat":46.359287},{"place":"Vierumaki, Finland","lon":25.930548,"lat":61.106174},{"place":"Humenne, Slovakia","lon":21.907133,"lat":48.934357},{"place":"KääRiku, Otepää Vald, Estonia","lon":26.480089,"lat":58.062803},{"place":"Tartu, Estonia","lon":26.722664,"lat":58.379997},{"place":"Bytom, Poland","lon":18.921978,"lat":50.346897},{"place":"Kamberovica Polje Bb, Bosnia and Herzegovina","lon":19.318492,"lat":43.836259},{"place":"Biel/Bienne, Switzerland","lon":7.246737,"lat":47.137917},{"place":"Turkey, Turkiye","lon":41.15117,"lat":37.892407},{"place":"Sobota, Poland","lon":19.685167,"lat":52.11465},{"place":"Marcq-En-Baroeul, France","lon":3.104213,"lat":50.675613},{"place":"Pirogovo, Russia","lon":53.158596,"lat":56.784668},{"place":"Dnipro, Ukraine","lon":35.04754,"lat":48.46346},{"place":"Corradino-Paola, Malta","lon":14.507375,"lat":35.871799},{"place":"Alanya, Turkiye","lon":31.998941,"lat":36.542297},{"place":"NorrköPing, Sweden","lon":16.185743,"lat":58.590572},{"place":"Ramat Hasharon, Israel","lon":34.838486,"lat":32.145855},{"place":"Penina, Portugal","lon":-7.43985,"lat":39.294016},{"place":"Palmanova - Calvia, Spain","lon":2.53846,"lat":39.52341},{"place":"Villena - Alicante, Spain","lon":-0.405844,"lat":38.407793},{"place":"Pedrouzos, 3, Spain","lon":-7.3413,"lat":42.680927},{"place":"Paralimni, Cyprus","lon":33.981724,"lat":35.03948},{"place":"Niš, Serbia","lon":21.894835,"lat":43.318123},{"place":"Poreč, Croatia","lon":13.593142,"lat":45.227863},{"place":"2840 Holte, Denmark","lon":12.47258,"lat":55.811084},{"place":"Pazardzhik, Bulgaria","lon":24.33218,"lat":42.19139},{"place":"Budaest, Hungary","lon":19.040359,"lat":47.497994},{"place":"Al. I.J Paderewskiego 35, Poland","lon":19.475229,"lat":51.089889},{"place":"KršKo, Slovenia","lon":15.494677,"lat":45.957645},{"place":"Doboj, Bosnia and Herzegovina","lon":18.08502,"lat":44.732433},{"place":"Bergeijk, Netherlands","lon":5.358198,"lat":51.322063},{"place":"Szekesfehervar, Hungary","lon":18.410381,"lat":47.19081},{"place":"BENIDORM-Alicante, Spain","lon":-0.443477,"lat":38.417986},{"place":"Peja, Kosovo","lon":20.288576,"lat":42.659399},{"place":"La Nucia - Alicante, Spain","lon":-0.355237,"lat":38.450175},{"place":"Velká Hledsebe, Czechia","lon":12.667507,"lat":49.961338},{"place":"OtočEc, Slovenia","lon":15.222154,"lat":45.833633},{"place":"Djakovo, Croatia","lon":18.409388,"lat":45.309837},{"place":"Chornomorsk, Ukraine","lon":30.654924,"lat":46.301346},{"place":"Greve, Denmark","lon":12.240594,"lat":55.597527},{"place":"Rīga, Latvia","lon":24.105185,"lat":56.949398},{"place":"PíSek, Czechia","lon":14.149767,"lat":49.308533},{"place":"ORADEA, Romania","lon":21.93059,"lat":47.055992},{"place":"Aviles, Spain","lon":-5.922247,"lat":43.557236},{"place":"FüRstenfeld, Austria","lon":16.077534,"lat":47.050114},{"place":"Otocec, Slovenia","lon":15.222154,"lat":45.833633},{"place":"Tba, Bulgaria","lon":77.181645,"lat":28.594893},{"place":"Brasov, Romania","lon":25.610168,"lat":45.651417},{"place":"Hørsholm, Denmark","lon":12.497591,"lat":55.88061},{"place":"Bellinzona, Switzerland","lon":9.022511,"lat":46.189984},{"place":"Patra, Greece","lon":21.734795,"lat":38.245506},{"place":"Montreux-Territet, Switzerland","lon":6.910115,"lat":46.433422},{"place":"Near Aylesbury, Great Britain","lon":-0.812757,"lat":51.81684},{"place":"Presov, Slovakia","lon":21.239887,"lat":48.9978},{"place":"Cuneo, Italy","lon":7.547108,"lat":44.3888},{"place":"TC Favorit","lon":-0.543613,"lat":42.580364},{"place":"Vic, Spain","lon":2.255204,"lat":41.930954},{"place":"Gyor, Hungary","lon":17.634755,"lat":47.683812},{"place":"Palmanova.Mallorca, Spain","lon":-4.055685,"lat":41.294856},{"place":"Penina - Portimao, Portugal","lon":-8.536365,"lat":37.13733},{"place":"Meneou, Larnaca, Cyprus","lon":33.605426,"lat":34.836802},{"place":"Saransk, Russia","lon":45.185246,"lat":54.184265},{"place":"Corradino, Paola, Malta","lon":14.507375,"lat":35.871799},{"place":"BRATISLAVA, Slovakia","lon":17.108387,"lat":48.1438},{"place":"Bad Waltersdorf, Austria","lon":16.00933,"lat":47.16963},{"place":"Sainte-GenevièVe-Des-Bois, France","lon":2.332869,"lat":48.637573},{"place":"Le Chambon Sur Lignon, France","lon":4.302439,"lat":45.06039},{"place":"Bar-Le-Duc, France","lon":5.161114,"lat":48.7734},{"place":"Poitiers, France","lon":0.341987,"lat":46.582954},{"place":"Viimsi vald, Estonia","lon":24.843472,"lat":59.499203},{"place":"Marcq en Baroeul, France","lon":3.104213,"lat":50.675613},{"place":"Bertgen, Norway","lon":5.325952,"lat":60.39555},{"place":"Blois, France","lon":1.336106,"lat":47.58605},{"place":"Bree, Belgium","lon":5.598501,"lat":51.141798},{"place":"Khanty - Mansiysk, Russia","lon":69.0169,"lat":61.004116},{"place":"Burgas, Bulgaria","lon":27.472364,"lat":42.49361},{"place":"Zadar, Croatia","lon":15.234303,"lat":44.121859},{"place":"Hoehr-Grenzhausen, Germany","lon":7.669444,"lat":50.437466},{"place":"Svyatopetrivske Village, Ukraine","lon":34.440613,"lat":49.590467},{"place":"Banska Bystrica, Slovakia","lon":19.145852,"lat":48.735933},{"place":"Banja Luka, Bosnia and Herzegovina","lon":17.19112,"lat":44.77114},{"place":"Sozopol, Bulgaria","lon":27.693457,"lat":42.421974},{"place":"Minsk Region, Volojinski District, Belarus","lon":27.591021,"lat":53.609904},{"place":"Brestovic, Pejë, Kosovo","lon":20.302464,"lat":42.701764},{"place":"Benidorm, Spain","lon":-0.127459,"lat":38.537037},{"place":"Penza, Russia","lon":45.010708,"lat":53.19586},{"place":"Székesfehérvár, Hungary","lon":18.410381,"lat":47.19081},{"place":"La Nucia (Alicante), Spain","lon":-0.355237,"lat":38.450175},{"place":"San Marino , San Marino","lon":12.446699,"lat":43.9364},{"place":"Gyumri, Armenia","lon":43.839368,"lat":40.783135},{"place":"Hotonj I/3 VogošćA, Bosnia and Herzegovina","lon":18.344238,"lat":43.901585},{"place":"Groetzingen / Karlsruhe, Germany","lon":8.496097,"lat":49.00721},{"place":"Holte, Denmark","lon":12.47258,"lat":55.811085},{"place":"Constanta, Romania","lon":28.651758,"lat":44.17856},{"place":"El Prat De Llobregat - Barcelona, Spain","lon":2.0943,"lat":41.325485},{"place":"ARAD, Romania","lon":21.316925,"lat":46.173473},{"place":"Pozoblanco, Spain","lon":-4.849682,"lat":38.381065},{"place":"Forli, Italy","lon":12.040021,"lat":44.22238},{"place":"Buzau, Romania","lon":26.820683,"lat":45.153008},{"place":"Portoroz, Slovenia","lon":13.590121,"lat":45.513596},{"place":"Ruse, Bulgaria","lon":25.952076,"lat":43.848526},{"place":"Sassuolo, Italy","lon":10.783416,"lat":44.541946},{"place":"Marnes La Coquette, France","lon":2.178582,"lat":48.830555},{"place":"Muenster, Germany","lon":7.629553,"lat":51.96083},{"place":"Slieven, Bulgaria","lon":26.317656,"lat":42.680508},{"place":"Otočec Ob Krki, Slovenia","lon":15.075094,"lat":45.783074},{"place":"Ptolemaida, Greece","lon":21.679283,"lat":40.513542},{"place":"Villeneuve Lez Avignon, France","lon":4.797596,"lat":43.963673},{"place":"Veldhoven, Netherlands","lon":5.40462,"lat":51.418446},{"place":"PATRA, Greece","lon":21.734795,"lat":38.245506},{"place":"AviléS, Spain","lon":-5.922247,"lat":43.557236},{"place":"Palermo, Italy","lon":13.360334,"lat":38.120358},{"place":"Cluj-Napoca, Romania","lon":23.589823,"lat":46.770878},{"place":"Fossano, Italy","lon":7.72498,"lat":44.549076},{"place":"Falkoping, Sweden","lon":13.552829,"lat":58.16942},{"place":"El Prat De Llobregat, Spain","lon":2.0943,"lat":41.325485},{"place":"Győr, Hungary","lon":17.634755,"lat":47.683812},{"place":"Penina, Portugal, Portugal","lon":-7.43985,"lat":39.294016},{"place":"Sainte GenevièVe Des Bois, France","lon":2.332869,"lat":48.637573},{"place":"Sobota K/Rokietnicy, Poland","lon":19.685167,"lat":52.11465},{"place":"Ekaterinburg, Russia","lon":60.59517,"lat":56.835423},{"place":"Jarfalla (Stockholm), Sweden","lon":17.833754,"lat":59.423347},{"place":"Sunderland, Great Britain","lon":-1.382873,"lat":54.905851},{"place":"Kiyv, Ukraine","lon":30.524136,"lat":50.450034},{"place":"Gorizia, Italy","lon":13.623595,"lat":45.942608},{"place":"Plovdiv, Bulgaria","lon":24.748371,"lat":42.148224},{"place":"Zetrud-Lumay, Belgium","lon":4.889965,"lat":50.759136},{"place":"Hillerod, Denmark","lon":12.302462,"lat":55.93003},{"place":"Bari, Italy","lon":16.869337,"lat":41.126244},{"place":"Palmanova - Mallorca, Spain","lon":2.983333,"lat":39.616667},{"place":"Raananna, Israel","lon":34.87611,"lat":32.180256},{"place":"Sanxenxo - Pontevedra, Spain","lon":-8.806865,"lat":42.40019},{"place":"Santa Ponsa, Spain","lon":2.482501,"lat":39.514904},{"place":"Limassol, Cyprus","lon":33.032833,"lat":34.68534},{"place":"Adazi, Latvia","lon":24.322811,"lat":57.076733},{"place":"Svyatopetrivske, Ukraine","lon":31.320283,"lat":49.322794},{"place":"Irpin, Ukraine","lon":30.24429,"lat":50.519375},{"place":"Szczawno Zdroj, Poland","lon":16.25153,"lat":50.800799},{"place":"Krakow, Poland","lon":19.937975,"lat":50.062325},{"place":"Enka Spor KulÜBÜ, Sadİ GÜLÇElİK Spor SİTesİ, 34460, Turkiye","lon":29.054101,"lat":41.113757},{"place":"Renningen, Germany","lon":8.934218,"lat":48.764557},{"place":"Valladolid, Spain","lon":-4.726678,"lat":41.652332},{"place":"Le Touquet, France","lon":1.584582,"lat":50.524002},{"place":"Todi, Italy","lon":12.406307,"lat":42.782707},{"place":"Gdansk, Poland","lon":18.650743,"lat":54.350178},{"place":"Hilleroed, Denmark","lon":12.302462,"lat":55.93003},{"place":"Augsburg, Germany","lon":10.897016,"lat":48.367977},{"place":"Kaunas, Lithuania","lon":23.904482,"lat":54.898214},{"place":"Zell Am See, Austria","lon":12.798367,"lat":47.323536},{"place":"Italy, Italy","lon":-77.278811,"lat":42.63709},{"place":"Bistrita, Romania","lon":24.498774,"lat":47.133495},{"place":"Pozoblanco (Cordoba), Spain","lon":-4.849682,"lat":38.381065},{"place":"Dueren, Germany","lon":6.483711,"lat":50.802837},{"place":"Krems An Der Donau, Austria","lon":15.60058,"lat":48.41126},{"place":"Oosterbeek, Netherlands","lon":5.84507,"lat":51.987076},{"place":"Jablonec Nad Nisou, Czechia","lon":15.171606,"lat":50.72383},{"place":"Portorož, Slovenia","lon":13.590121,"lat":45.513596},{"place":"48161 Muenster, Germany","lon":7.56043,"lat":51.998863},{"place":"Saint-Valery-En-Caux, France","lon":0.710877,"lat":49.859795},{"place":"San Marino, San Marino","lon":12.446699,"lat":43.9364},{"place":"Eindhoven, Netherlands","lon":5.480267,"lat":51.43773},{"place":"Hoersholm, Denmark","lon":12.497591,"lat":55.88061},{"place":"Birkeroed, Denmark","lon":12.43122,"lat":55.840675},{"place":"Portimao, Portugal","lon":-8.536365,"lat":37.13733},{"place":"Albena, Bulgaria","lon":28.064451,"lat":43.36707},{"place":"PéCs, Hungary","lon":18.22842,"lat":46.075485},{"place":"Paphos, Cyprus","lon":32.421844,"lat":34.77533},{"place":"Le Passage D'Agen, France","lon":0.661415,"lat":44.151277},{"place":"NikšIć, Montenegro","lon":18.94881,"lat":42.773939},{"place":"Tirane, Albania","lon":19.81611,"lat":41.320507},{"place":"Jaffo, Israel","lon":35.215095,"lat":31.784631},{"place":"Kopavogi, Iceland","lon":-18.605467,"lat":64.997588},{"place":"Iraklio, Greece","lon":25.132599,"lat":35.339375},{"place":"Sainte-Genevieve-Des-Bois, France","lon":2.332869,"lat":48.637573},{"place":"Le Chambon-Sur-Lignon, France","lon":4.302439,"lat":45.06039},{"place":"Khanty Mansiysk, Russia","lon":69.0169,"lat":61.004116},{"place":"Khanty-Mansiysk, Russia","lon":69.0169,"lat":61.004116},{"place":"Odos, France","lon":0.058045,"lat":43.197514},{"place":"Goteborg, Sweden","lon":11.966936,"lat":57.703545},{"place":"Szczawno ZdróJ, Poland","lon":16.25153,"lat":50.800799},{"place":"Oradea, Romania","lon":21.93059,"lat":47.055992},{"place":"Aridea, Greece","lon":22.0636,"lat":40.97467},{"place":"Ivano-Frankivsk, Ukraine","lon":24.710319,"lat":48.922522},{"place":"Koufalia, Greece","lon":22.578054,"lat":40.77788},{"place":"İStanbul, Turkiye","lon":28.966219,"lat":41.009198},{"place":"Granville, France","lon":-1.595215,"lat":48.838316},{"place":"Kilkis, Greece","lon":22.874334,"lat":40.99284},{"place":"Rivne Region, Ukraine","lon":26.250486,"lat":50.61937},{"place":"Castellon, Spain","lon":-0.037735,"lat":39.986035},{"place":"GIROC, Romania","lon":21.23362,"lat":45.700294},{"place":"Mannheim, Germany","lon":8.467922,"lat":49.4871},{"place":"Rezzato, Italy","lon":10.315311,"lat":45.51388},{"place":"Dijon, France","lon":5.041008,"lat":47.32223},{"place":"Krems an der Donau, Austria","lon":15.60058,"lat":48.41126},{"place":"Nis, Serbia","lon":21.894835,"lat":43.318123},{"place":"Neunkirchen, Germany","lon":7.173827,"lat":49.34858},{"place":"Paris, France","lon":2.348392,"lat":48.853495},{"place":"San Remo, Italy","lon":7.774342,"lat":43.81943},{"place":"CORRADINO HEIGHTS, CORRADINO, Malta","lon":10.75934,"lat":45.32488},{"place":"Murcia, Spain","lon":-1.129442,"lat":37.986664},{"place":"Stara Zagora, Bulgaria","lon":25.628511,"lat":42.42327},{"place":"Villeneuve-Lez-Avignon, France","lon":4.797596,"lat":43.963673},{"place":"Mestre, Italy","lon":12.242576,"lat":45.49361},{"place":"Trieste, Italy","lon":13.772238,"lat":45.650043},{"place":"budapest, Hungary","lon":19.040359,"lat":47.497994},{"place":"PortimÃO - Algarve, Portugal","lon":-8.536365,"lat":37.13733},{"place":"İStanbul (Istanbul, Turkey), Turkiye","lon":29.249975,"lat":40.900442},{"place":"Milano, Italy","lon":9.188558,"lat":45.463945},{"place":"Messina, Italy","lon":15.554921,"lat":38.191647},{"place":"Foligno, Italy","lon":12.703836,"lat":42.955933},{"place":"Pescara, Italy","lon":14.206623,"lat":42.47194},{"place":"Correggio, Italy","lon":10.780496,"lat":44.77152},{"place":"FalköPing, Sweden","lon":13.552829,"lat":58.16942},{"place":"Pavia, Italy","lon":9.154295,"lat":45.185566},{"place":"Slilengrad, Bulgaria","lon":26.200602,"lat":41.766037},{"place":"Montreux, Switzerland","lon":6.910115,"lat":46.433422},{"place":"Kopavogur, Iceland","lon":-21.908053,"lat":64.111246},{"place":"T.B.A, Israel","lon":-50.904219,"lat":-16.316032},{"place":"Athens, Greece","lon":23.729275,"lat":37.97757},{"place":"Angra Do Heroismo, Portugal","lon":-27.21897,"lat":38.655785},{"place":"Sainte-Geneviève-des-Bois, France","lon":2.332869,"lat":48.637573},{"place":"Tyresö (Stockholm), Sweden","lon":18.262568,"lat":59.246952},{"place":"Tyne & Wear, Great Britain","lon":-1.612551,"lat":54.971905},{"place":"Lousada, Portugal","lon":-8.281515,"lat":41.277843},{"place":"Bergen Op Zoom, Netherlands","lon":4.287609,"lat":51.49478},{"place":"Hodmezovasarhely, Hungary","lon":20.328931,"lat":46.417293},{"place":"Ronchi Dei Legionari, Italy","lon":13.501678,"lat":45.82827},{"place":"Hradek Nad Nisou, Czechia","lon":14.84366,"lat":50.85404},{"place":"Leibnitz, Austria","lon":15.542435,"lat":46.782272},{"place":"Vanersborg, Sweden","lon":12.322512,"lat":58.37961},{"place":"Belgrade, Serbia","lon":20.456897,"lat":44.817813},{"place":"SAINT-GREGOIRE, France","lon":-1.686356,"lat":48.153027},{"place":"Milovice - Mlada, Czechia","lon":14.882806,"lat":50.22727},{"place":"Norrkoping, Sweden","lon":16.185743,"lat":58.590572},{"place":"Almetyevsk, Russia","lon":52.304817,"lat":54.904385},{"place":"Haifa, Israel","lon":34.999767,"lat":32.81865},{"place":"Liverpool, Great Britain","lon":-2.991665,"lat":53.407154},{"place":"SANTA PONSA, Spain","lon":2.482501,"lat":39.514904},{"place":"Kyiv, Petrovske Village, Ukraine","lon":30.524136,"lat":50.450034},{"place":"Vrsar, Croatia","lon":13.603908,"lat":45.149498},{"place":"Biot, France","lon":7.09747,"lat":43.627495},{"place":"Klosters, Switzerland","lon":9.882404,"lat":46.8681},{"place":"Bath, Great Britain","lon":-2.359696,"lat":51.381386},{"place":"WARSZAWA, Poland","lon":21.016317,"lat":52.23072},{"place":"Málaga, Spain","lon":-4.412525,"lat":36.720476},{"place":"Tula, Russia","lon":37.6136,"lat":54.193153},{"place":"Odesa, Ukraine","lon":30.736872,"lat":46.48423},{"place":"Ptuj, Slovenia","lon":15.871738,"lat":46.41981},{"place":"Frederiksberg, Denmark","lon":12.533515,"lat":55.679153},{"place":"PATRIOTSKE LIGE 21, Bosnia and Herzegovina","lon":16.156539,"lat":44.885183},{"place":"KOUFALIA, Greece","lon":22.578054,"lat":40.77788},{"place":"Basel, Switzerland","lon":7.588639,"lat":47.555943},{"place":"Kavadarci, North Macedonia","lon":22.012259,"lat":41.43328},{"place":"Balashikha, Russia","lon":37.934494,"lat":55.797325},{"place":"Berlin, Germany","lon":13.38886,"lat":52.517037},{"place":"Northumberland, Great Britain","lon":-1.69073,"lat":55.167538},{"place":"Latiano, Italy","lon":17.717985,"lat":40.553535},{"place":"Most, Czechia","lon":13.640739,"lat":50.502155},{"place":"LA ROCHELLE, France","lon":-1.153455,"lat":46.15778},{"place":"WROCLAW, Poland","lon":17.03056,"lat":51.11029},{"place":"Stobrec - Split, Croatia","lon":16.522401,"lat":43.502427},{"place":"Annecy, France","lon":6.123801,"lat":45.899185},{"place":"Haren, Netherlands","lon":6.604042,"lat":53.172596},{"place":"Pilsen, Czechia","lon":13.37643,"lat":49.746517},{"place":"Zetrud Lumay, Belgium","lon":4.889965,"lat":50.759136},{"place":"REZZATO, Italy","lon":10.315311,"lat":45.51388},{"place":"Corradino Paola, Malta","lon":14.507375,"lat":35.871799},{"place":"AVILÉS, Spain","lon":-5.922247,"lat":43.557236},{"place":"Schachenstrasse 15, Switzerland","lon":9.643504,"lat":47.44799},{"place":"SAVONA, Italy","lon":8.483416,"lat":44.308285},{"place":"Budaors, Hungary","lon":18.957521,"lat":47.46069},{"place":"Porto San Giorgio, Italy","lon":13.795391,"lat":43.179108},{"place":"ptuj, Slovenia","lon":15.871738,"lat":46.41981},{"place":"KROSNO, Poland","lon":21.764805,"lat":49.693913},{"place":"VILLENEUVE-LEZ-AVIGNON, France","lon":4.797596,"lat":43.963673},{"place":"Crema, Italy","lon":9.687603,"lat":45.36304},{"place":"Aarhus, Denmark","lon":10.206425,"lat":56.15581},{"place":"SZCZECIN, Poland","lon":14.544545,"lat":53.430527},{"place":"BIOT, France","lon":7.09747,"lat":43.627495},{"place":"CACAK, Serbia","lon":20.35039,"lat":43.891285},{"place":"El Prat de Llobregat, Barcelona, Spain","lon":2.0943,"lat":41.325485},{"place":"10 Calea Iesilor,Chisinau, Moldova","lon":28.755378,"lat":47.059407},{"place":"Jaffa, Israel","lon":35.215095,"lat":31.784631},{"place":"SUBOTICA, Serbia","lon":19.665573,"lat":46.10027},{"place":"OPALENICA, Poland","lon":16.41105,"lat":52.308186},{"place":"TORELLÓ, Spain","lon":2.262138,"lat":42.04606},{"place":"PROKUPLJE, Serbia","lon":21.588497,"lat":43.23358},{"place":"PALMANOVA - MALLORCA, Spain","lon":2.983333,"lat":39.616667},{"place":"Tiranë, Albania","lon":19.81611,"lat":41.320507},{"place":"PANCEVO, Serbia","lon":20.641712,"lat":44.870846},{"place":"NOVI SAD, Serbia","lon":19.845444,"lat":45.25558},{"place":"PEFKI - ATHENS, Greece","lon":21.658978,"lat":37.773384},{"place":"Bratislava, Slovakia","lon":17.108387,"lat":48.1438},{"place":"Ponta Delgada, Portugal","lon":-25.668623,"lat":37.74021},{"place":"Le Chambon-sur-Lignon, France","lon":4.302439,"lat":45.06039},{"place":"BUCA, Turkiye","lon":27.193077,"lat":38.372204},{"place":"Bergen op zoom, Netherlands","lon":4.287609,"lat":51.49478},{"place":"Ronchi dei Legionari, Italy","lon":13.501678,"lat":45.82827},{"place":"Neudorfl, Austria","lon":16.29786,"lat":47.796061},{"place":"Ryazan, Russia","lon":39.74087,"lat":54.629272},{"place":"Boulogne Billancourt, France","lon":2.241284,"lat":48.83501},{"place":"BEOGRAD, Serbia","lon":20.456897,"lat":44.817813},{"place":"Siroki Brijeg, Bosnia and Herzegovina","lon":17.593794,"lat":43.383293},{"place":"Tyresö, Stockholm, Sweden","lon":18.262568,"lat":59.246952},{"place":"Nicosia, Cyprus","lon":33.360275,"lat":35.16923},{"place":"CAPDEPERA (Palma Mallorca), Spain","lon":-1.859947,"lat":38.984507},{"place":"Barcelona, Spain","lon":2.16538,"lat":41.38723},{"place":"Ādaži, Latvia","lon":24.322811,"lat":57.076733},{"place":"Kyev, v. Petrovskoe, Ukraine","lon":38.900787,"lat":48.29893},{"place":"7201 Untervaz, Switzerland","lon":9.535127,"lat":46.92773},{"place":"KYIV, Ukraine","lon":30.524136,"lat":50.450034},{"place":"Rivne Region, Velikaya Omelian, Ukraine","lon":26.250486,"lat":50.61937},{"place":"Irpen, Ukraine","lon":30.24429,"lat":50.519375},{"place":"SEVILLA, Spain","lon":-5.992558,"lat":37.389416},{"place":"Benidorm (Alicante), Spain","lon":-0.443477,"lat":38.417986},{"place":"LVIV, Ukraine","lon":24.030994,"lat":49.841206},{"place":"Holbæk, Denmark","lon":11.710247,"lat":55.716488},{"place":"GALATI, Romania","lon":28.05401,"lat":45.43376},{"place":"Rutesheim / Renningen, Germany","lon":8.946124,"lat":48.808277},{"place":"Bludenz, Austria","lon":9.818731,"lat":47.156555},{"place":"İstanbul, Turkiye","lon":28.966219,"lat":41.009198},{"place":"KAVADARCI, North Macedonia","lon":22.012259,"lat":41.43328},{"place":"Bursa, Turkiye","lon":29.064938,"lat":40.18468},{"place":"Trani, Italy","lon":16.417469,"lat":41.274204},{"place":"Newcastle upon Tyne, Great Britain","lon":-1.613157,"lat":54.973847},{"place":"Monopoli, Italy","lon":17.301777,"lat":40.952805},{"place":"KORDIN - PAOLA, Malta","lon":14.507375,"lat":35.871799},{"place":"ANNECY, France","lon":6.123801,"lat":45.899185},{"place":"Galati, Romania","lon":28.05401,"lat":45.43376},{"place":"TK Slavia Pilzen, Czechia","lon":13.37643,"lat":49.746517},{"place":"NIŠ, Serbia","lon":21.894835,"lat":43.318123},{"place":"NANTES, France","lon":-1.551244,"lat":47.218183},{"place":"Ohain (Brussels), Belgium","lon":4.35121,"lat":50.8551},{"place":"OTOČEC, Slovenia","lon":15.222154,"lat":45.833633},{"place":"Ufa, Russia","lon":55.94154,"lat":54.727047},{"place":"POTTERS BAR, Great Britain","lon":-0.193591,"lat":51.695114},{"place":"Slovenska Lupca, Slovakia","lon":19.276657,"lat":48.76746},{"place":"Münster, Germany","lon":7.629553,"lat":51.96083},{"place":"Bucuresti, Romania","lon":26.10272,"lat":44.436141},{"place":"Torino, Italy","lon":7.681933,"lat":45.072838},{"place":"Spain, Spain","lon":-3.749025,"lat":39.017463},{"place":"Bremen, Germany","lon":8.806355,"lat":53.075363},{"place":"Alleur, Belgium","lon":5.513484,"lat":50.674267},{"place":"Veli Losinj, Croatia","lon":14.501717,"lat":44.521069},{"place":"Padova, Italy","lon":11.876048,"lat":45.40779},{"place":"Szazhalombatta, Hungary","lon":18.908768,"lat":47.317604},{"place":"Vilamoura, Portugal","lon":-52.850647,"lat":47.627213},{"place":"MESSINA, Italy","lon":15.554921,"lat":38.191647},{"place":"Rivne, Ukraine","lon":26.250486,"lat":50.61937},{"place":"Copenhagen, Denmark","lon":12.569734,"lat":55.675313},{"place":"BITOLA, North Macedonia","lon":21.330251,"lat":41.031601},{"place":"Hillerød, Denmark","lon":12.302462,"lat":55.93003},{"place":"Biella, Italy","lon":8.054094,"lat":45.56629},{"place":"Vadul lui Voda, Moldova","lon":29.08015,"lat":47.087486},{"place":"Akko, Israel","lon":35.071865,"lat":32.923775},{"place":"Kyiv, Ukraine","lon":30.524136,"lat":50.450034},{"place":"BRINDISI, Italy","lon":17.944258,"lat":40.638535},{"place":"Kyiv , Ukraine","lon":30.524136,"lat":50.450034},{"place":"Dunakeszi, Hungary","lon":19.129599,"lat":47.637924},{"place":"kfar Hamaccabiah, Israel","lon":34.767835,"lat":31.24119},{"place":"Zagreb, Croatia","lon":15.976789,"lat":45.813778},{"place":"PEFKI-ATHENS, Greece","lon":21.658978,"lat":37.773384},{"place":"Novokuznetsk, Russia","lon":87.13536,"lat":53.75752},{"place":"IRAKLIO, Greece","lon":25.132599,"lat":35.339375},{"place":"Bratislava - Petrzalka, Slovakia","lon":17.10976,"lat":48.114704},{"place":"PONTA DELGADA /AÇORES, Portugal","lon":-25.668623,"lat":37.74021},{"place":"Rotterdam, Netherlands","lon":4.487597,"lat":51.92079},{"place":"Emilia-Romagna, Italy","lon":11.342633,"lat":44.49382},{"place":"Oetwil/See, Switzerland","lon":8.721687,"lat":47.27057},{"place":"Veska, Czechia","lon":17.812549,"lat":49.722008},{"place":"Pordenone, Italy","lon":12.658384,"lat":45.958572},{"place":"Esch Sur Alzette, Luxembourg","lon":5.981181,"lat":49.493935},{"place":"Dornbirn, Austria","lon":9.742866,"lat":47.413784},{"place":"Göteborg', Sweden","lon":11.966936,"lat":57.703545},{"place":"Edgbaston, Great Britain","lon":-1.918713,"lat":52.461223},{"place":"GRADIGNAN, France","lon":-0.614274,"lat":44.77273},{"place":"Telde - Gran Canaria, Spain","lon":-15.432119,"lat":27.919457},{"place":"Sanxenxo (Pontevedra), Spain","lon":-8.806865,"lat":42.40019},{"place":"Palmanova (Palma Mallorca), Spain","lon":2.53846,"lat":39.52341},{"place":"Sochi, Russia","lon":39.723736,"lat":43.58744},{"place":"Vadul-lui-Voda, Moldova","lon":29.08015,"lat":47.087486},{"place":"Jelgava, Latvia","lon":23.733914,"lat":56.651439},{"place":"Sa Font de Sa Cala (Mallorca), Spain","lon":2.983333,"lat":39.616667},{"place":"Torelló, Spain","lon":2.262138,"lat":42.04606},{"place":"Kockelscheuer, Luxembourg","lon":6.105556,"lat":49.552868},{"place":"BENIDORM (Alicante), Spain","lon":-0.443477,"lat":38.417986},{"place":"Cornellà del Llobregat (Barcelona), Spain","lon":2.076311,"lat":41.359608},{"place":"Pleven, Bulgaria","lon":24.618132,"lat":43.409477},{"place":"Rakov, Belarus","lon":28.046788,"lat":53.539998},{"place":"EL Prat de LLobregat (Barcelona), Spain","lon":2.0943,"lat":41.325485},{"place":"ARIDEA, Greece","lon":22.0636,"lat":40.97467},{"place":"Perm, Russia","lon":56.246563,"lat":58.013706},{"place":"Sarajevo, Bosnia and Herzegovina","lon":18.38529,"lat":43.85251},{"place":"Sevilla, Spain","lon":-5.992558,"lat":37.389416},{"place":"PTUJ, Slovenia","lon":15.871738,"lat":46.41981},{"place":"Karlsruhe, Germany","lon":8.401216,"lat":49.009716},{"place":"Zell am See, Austria","lon":12.798367,"lat":47.323536},{"place":"Pirogovskiy, Russia","lon":96.669705,"lat":61.994573},{"place":"Eching/Munich, Germany","lon":11.621579,"lat":48.2978},{"place":"Venice Lido, Italy","lon":12.370608,"lat":45.416336},{"place":"Sheffield, Great Britain","lon":-1.470228,"lat":53.380663},{"place":"Niksic, Montenegro","lon":18.94881,"lat":42.773939},{"place":"Mesagne, Italy","lon":17.809593,"lat":40.560204},{"place":"Westendorf, Austria","lon":12.21598,"lat":47.433464},{"place":"Wroclaw, Poland","lon":17.03056,"lat":51.11029},{"place":"BRESSANONE, Italy","lon":11.656893,"lat":46.715824},{"place":"Düren, Germany","lon":6.483711,"lat":50.802837},{"place":"Podgorica, Montenegro","lon":19.262108,"lat":42.441524},{"place":"Dublin, Ireland","lon":-6.260296,"lat":53.349801},{"place":"NIS, Serbia","lon":21.894835,"lat":43.318123},{"place":"Nantes, France","lon":-1.551244,"lat":47.218183},{"place":"Lida, Belarus","lon":25.29581,"lat":53.895523},{"place":"Curtea de Arges, Romania","lon":24.676086,"lat":45.14216},{"place":"SALO', Italy","lon":10.52853,"lat":45.607117},{"place":"Paola, Malta","lon":14.507375,"lat":35.871799},{"place":"Hatfield, Great Britain","lon":-0.225825,"lat":51.763466},{"place":"Ufa, Latvia","lon":24.862593,"lat":56.959065},{"place":"CORRADINO HEIGHTS, CORRADINO, PAOLA, Malta","lon":14.507375,"lat":35.871799},{"place":"Versmold, Germany","lon":8.155768,"lat":52.039722},{"place":"Oberpullendorf, Austria","lon":16.504753,"lat":47.50297},{"place":"Marne La Coquette, France","lon":2.178582,"lat":48.830555},{"place":"Otočec ob Krki, Slovenia","lon":15.075094,"lat":45.783074},{"place":"Budaörs, Hungary","lon":18.957521,"lat":47.46069},{"place":"BALCOVA, Turkiye","lon":27.058033,"lat":38.39077},{"place":"ITALY , Italy","lon":-77.278811,"lat":42.63709},{"place":"Hansestadt Bremen, Germany","lon":8.806355,"lat":53.075363},{"place":"Huy, Belgium","lon":5.240814,"lat":50.518086},{"place":"Villeneuve Les Avignon, France","lon":4.797596,"lat":43.963673},{"place":"Rungsted, Denmark","lon":11.78926,"lat":55.44639},{"place":"Prijedor, Bosnia and Herzegovina","lon":16.707233,"lat":44.978165},{"place":"PORTIMÃO, Portugal","lon":-8.536365,"lat":37.13733},{"place":"Mali Losinj, Croatia","lon":14.468747,"lat":44.53249},{"place":"Llucmajor, Spain","lon":2.89132,"lat":39.4908},{"place":"Kolobrzeg, Poland","lon":15.575701,"lat":54.17602},{"place":"VILAMOURA, Portugal","lon":-52.850647,"lat":47.627213},{"place":"TREVISO, Italy","lon":12.246493,"lat":45.666027},{"place":"Asker, Norway","lon":10.431733,"lat":59.834743},{"place":"Tuzla, Bosnia and Herzegovina","lon":18.676016,"lat":44.538532},{"place":"Reykjavík, Iceland","lon":-21.9436,"lat":64.145847},{"place":"SKOPJE, North Macedonia","lon":21.43165,"lat":41.996092},{"place":"El Prat de LLobregat (Barcelona), Spain","lon":2.0943,"lat":41.325485},{"place":"ZABRZE, Poland","lon":18.78542,"lat":50.308394},{"place":"BIELLA, Italy","lon":8.054094,"lat":45.56629},{"place":"Netanya, Israel","lon":34.858288,"lat":32.32812},{"place":"Falköping, Sweden","lon":13.552829,"lat":58.16942},{"place":"Vadul Lui Voda, Moldova","lon":29.08015,"lat":47.087486},{"place":"RADOM, Poland","lon":21.153679,"lat":51.401176},{"place":"LODZ, Poland","lon":19.457159,"lat":51.76555},{"place":"Nikšić, Montenegro","lon":18.94881,"lat":42.773939},{"place":"Brindisi, Italy","lon":17.944258,"lat":40.638535},{"place":"Zenica, Bosnia and Herzegovina","lon":17.909204,"lat":44.19983},{"place":"Cakovec, Croatia","lon":16.438461,"lat":46.38983},{"place":"NICOSIA, Cyprus","lon":33.360275,"lat":35.16923},{"place":"Risskov, Denmark","lon":10.242213,"lat":56.201843},{"place":"Palmanova, Spain","lon":2.53846,"lat":39.52341},{"place":"Dobrich, Bulgaria","lon":27.829117,"lat":43.569813},{"place":"LIMASSOL, Cyprus","lon":33.032833,"lat":34.68534},{"place":"Ulcinj, Montenegro","lon":19.205556,"lat":41.926012},{"place":"København, Denmark","lon":12.569734,"lat":55.675313},{"place":"Bressuire, France","lon":-0.492368,"lat":46.84005},{"place":"Solin, Croatia","lon":16.484774,"lat":43.54247},{"place":"LARNACA, Cyprus","lon":33.624577,"lat":34.92239},{"place":"Angra do Heroísmo, Portugal","lon":-27.21897,"lat":38.655785},{"place":"PALMANOVA (PALMA MALLORCA), Spain","lon":2.53846,"lat":39.52341},{"place":"Braga, Portugal","lon":-8.425402,"lat":41.55065},{"place":"PONTA DELGADA, Portugal","lon":-25.668623,"lat":37.74021},{"place":"Vinkovci, Croatia","lon":18.80535,"lat":45.288795},{"place":"MAIA, Portugal","lon":-8.621567,"lat":41.23288},{"place":"BAR, Montenegro","lon":19.095453,"lat":42.097975},{"place":"ATHENS, Greece","lon":23.729275,"lat":37.97757},{"place":"Rijeka, Croatia","lon":14.442651,"lat":45.326084},{"place":"IRAKLIO , Greece","lon":25.132599,"lat":35.339375},{"place":"Isernhagen, Germany","lon":9.850689,"lat":52.431263},{"place":"Auray, France","lon":-2.984148,"lat":47.66687},{"place":"Chambon-sur-Lignon, France","lon":4.302439,"lat":45.06039},{"place":"SAINTE-GENEVIEVE-DES-BOIS, France","lon":2.332869,"lat":48.637573},{"place":"t.b.a., Netherlands","lon":-89.75194,"lat":36.29913},{"place":"Zoetermeer, Netherlands","lon":4.491488,"lat":52.06156},{"place":"Ricany, Czechia","lon":14.657234,"lat":49.9916},{"place":"Vestec, Czechia","lon":14.507325,"lat":49.980762},{"place":"Reggio Emilia, Italy","lon":10.630386,"lat":44.69745},{"place":"Maniago, Italy","lon":12.707199,"lat":46.17064},{"place":"Mersin, Turkiye","lon":34.628307,"lat":36.798546},{"place":"Pecs, Hungary","lon":18.22842,"lat":46.075485},{"place":"Kazan, Russia","lon":49.114532,"lat":55.790897},{"place":"Cholet, France","lon":-0.881589,"lat":47.061512},{"place":"Trabzon, Turkiye","lon":39.72782,"lat":41.005836},{"place":"Ebreichsdorf, Austria","lon":16.399593,"lat":47.963013},{"place":"Ankara, Turkiye","lon":32.854183,"lat":39.920856},{"place":"Tarbes, France","lon":0.073884,"lat":43.23262},{"place":"Khimki, Russia","lon":37.440094,"lat":55.892433},{"place":"Boulogne-Billancourt, France","lon":2.241284,"lat":48.83501},{"place":"Coimbra, Portugal","lon":-8.429931,"lat":40.21042},{"place":"Gothenburg, Sweden","lon":11.966936,"lat":57.703545},{"place":"Umea, Sweden","lon":20.2635,"lat":63.825768},{"place":"Lohja, Finland","lon":24.066788,"lat":60.250538},{"place":"Jurmala, Latvia","lon":23.788698,"lat":56.972716},{"place":"Reggio Calabria, Italy","lon":15.64623,"lat":38.1114},{"place":"PALMANOVA, Spain","lon":2.53846,"lat":39.52341},{"place":"Magaluf, Spain","lon":2.535537,"lat":39.50881},{"place":"MADRID, Spain","lon":-3.701219,"lat":40.421345},{"place":"Umag, Croatia","lon":13.518677,"lat":45.433407},{"place":"Tirana, Albania","lon":19.81611,"lat":41.320507},{"place":"Lviv, Ukraine","lon":24.030994,"lat":49.841206},{"place":"Koper, Slovenia","lon":13.730478,"lat":45.547986},{"place":"CORNELLÁ DEL LLOBREGAT (BARCELONA), Spain","lon":2.076311,"lat":41.359608},{"place":"THESSALONIKI, Greece","lon":22.944689,"lat":40.633987},{"place":"RADENCI, Slovenia","lon":16.039985,"lat":46.640903},{"place":"Ulcinj,","lon":19.205556,"lat":41.926012},{"place":"Campina, Romania","lon":25.73504,"lat":45.123917},{"place":"Gengenbach, Germany","lon":8.015066,"lat":48.40394},{"place":"KILKIS, Greece","lon":22.874334,"lat":40.99284},{"place":"PODGORICA,","lon":19.262108,"lat":42.441524},{"place":"Rutesheim, Germany","lon":8.946124,"lat":48.808277},{"place":"Nivelles, Belgium","lon":4.323585,"lat":50.597689},{"place":"Ajaccio, France","lon":8.736935,"lat":41.91863},{"place":"Alghero, Italy","lon":8.315432,"lat":40.558697},{"place":"Zlin, Czechia","lon":17.665928,"lat":49.22566},{"place":"Cobh, Ireland","lon":-8.294903,"lat":51.85019},{"place":"La Rochelle, France","lon":-1.153455,"lat":46.15778},{"place":"Maglie, Italy","lon":18.299974,"lat":40.12079},{"place":"BR, Italy","lon":17.945526,"lat":40.63953},{"place":"Curtea De Arges, Romania","lon":24.676086,"lat":45.14216},{"place":"Venice, Italy","lon":12.336337,"lat":45.436974},{"place":"Torun, Poland","lon":18.605139,"lat":53.010254},{"place":"Munich, Germany","lon":11.575968,"lat":48.136973},{"place":"Köln / Cologne, Germany","lon":6.960162,"lat":50.93804},{"place":"Dublin 6, Ireland","lon":-6.622679,"lat":53.2363},{"place":"Stobrec, Croatia","lon":16.522401,"lat":43.502427},{"place":"BRESCIA, Italy","lon":10.219558,"lat":45.539703},{"place":"AVILES, Spain","lon":-5.922247,"lat":43.557236},{"place":"MESTRE, Italy","lon":12.242576,"lat":45.49361},{"place":"Wahlstedt, Germany","lon":10.211445,"lat":53.952614},{"place":"TALLINN, Estonia","lon":24.746462,"lat":59.436745},{"place":"Corradino, Malta","lon":-71.642516,"lat":48.538047},{"place":"Loano, Italy","lon":8.261366,"lat":44.128265},{"place":"Royan, France","lon":-1.029272,"lat":45.623943},{"place":"Sassari, Italy","lon":8.562282,"lat":40.726288},{"place":"KRANJ, Slovenia","lon":14.35495,"lat":46.243264},{"place":"Brussels, Belgium","lon":4.35121,"lat":50.8551},{"place":"Amsterdam, Netherlands","lon":4.9,"lat":52.378},{"place":"DK- 2960, Rungsted Kyst, Denmark","lon":12.525147,"lat":55.882851},{"place":"Telavi, Georgia","lon":45.465275,"lat":41.92424},{"place":"VILLENEUVE LEZ AVIGNON, France","lon":4.797596,"lat":43.963673},{"place":"Mostar, Bosnia and Herzegovina","lon":17.813868,"lat":43.33694},{"place":"Cluj Napoca, Romania","lon":23.589823,"lat":46.770878},{"place":"Vila Real Santo António, Portugal","lon":-8.208482,"lat":38.6517},{"place":"Cacak, San Marino","lon":40.775608,"lat":37.184711},{"place":"Reykjavik, Iceland","lon":-21.9436,"lat":64.145847},{"place":"Kharkiv, Ukraine","lon":36.232075,"lat":49.99316},{"place":"MONTECATINI, Italy","lon":10.774719,"lat":44.71388},{"place":"Samsun, Turkiye","lon":36.334373,"lat":41.28771},{"place":"Stabekk, Norway","lon":10.601468,"lat":59.908386},{"place":"Pitesti-Bascov, Romania","lon":24.87271,"lat":44.85601},{"place":"Lodz, Poland","lon":19.457159,"lat":51.76555},{"place":"Maribor, Slovenia","lon":15.645585,"lat":46.557644},{"place":"NIKSIC,","lon":18.94881,"lat":42.773939},{"place":"ROMA, Italy","lon":12.476713,"lat":41.899986},{"place":"tba, Bulgaria","lon":77.181645,"lat":28.594893},{"place":"Larnaca, Cyprus","lon":33.624577,"lat":34.92239},{"place":"Ponta Delgada, Azores Islands, Portugal","lon":-25.668623,"lat":37.74021},{"place":"BRNO, Czechia","lon":16.606107,"lat":49.193878},{"place":"Adana, Turkiye","lon":35.325283,"lat":36.98583},{"place":"Guimarães, Portugal","lon":-8.291792,"lat":41.442554},{"place":"Kópavogur, Iceland","lon":-21.908053,"lat":64.111246},{"place":"LECCE, Italy","lon":18.172291,"lat":40.3531},{"place":"Tel Aviv, Israel","lon":34.7819,"lat":32.08532},{"place":"Angra do Heroísmo - Azores, Portugal","lon":-27.21897,"lat":38.655785},{"place":"Sergiev Pasad, Russia","lon":38.134335,"lat":56.311443},{"place":"SAINTE-GENEVIEVE DES BOIS, France","lon":2.332869,"lat":48.637573},{"place":"Stockholm, Sweden","lon":18.06902,"lat":59.324337},{"place":"Togliatti, Russia","lon":49.410442,"lat":53.51387},{"place":"Frydlant Nad Ostravici, Czechia","lon":18.358376,"lat":49.591805},{"place":"Kamen, Germany","lon":7.664007,"lat":51.59241},{"place":"Ronchin, France","lon":3.076528,"lat":50.607285},{"place":"ITA, Italy","lon":15.436617,"lat":38.05128},{"place":"Udine, Italy","lon":13.235219,"lat":46.06344},{"place":"Bergen, Norway","lon":5.325952,"lat":60.39555},{"place":"Vendryne, Czechia","lon":18.712067,"lat":49.66748},{"place":"Zutphen, Netherlands","lon":6.194693,"lat":52.141411},{"place":"Brest, France","lon":-4.486921,"lat":48.389565},{"place":"Istanbul, Turkiye","lon":28.966219,"lat":41.009198},{"place":"Maniago,","lon":12.707199,"lat":46.17064},{"place":"Izmir, Turkiye","lon":27.137737,"lat":38.4242},{"place":"Karlskrona, Sweden","lon":15.586842,"lat":56.16212},{"place":"Correggio,","lon":10.780496,"lat":44.77152},{"place":"Vänersborg, Sweden","lon":12.322512,"lat":58.37961},{"place":"TARBES, France","lon":0.073884,"lat":43.23262},{"place":"Bucharest, Romania","lon":26.10272,"lat":44.436141},{"place":"Milovice, Czechia","lon":14.882806,"lat":50.22727},{"place":"BOULOGNE-BILLANCOURT, France","lon":2.241284,"lat":48.83501},{"place":"Wrexham, Great Britain","lon":-2.993507,"lat":53.046627},{"place":"Marsa, Malta","lon":14.49449,"lat":35.882892},{"place":"Göteborg, Sweden","lon":11.966936,"lat":57.703545},{"place":"Moscow Region, Russia","lon":37.617494,"lat":55.750446},{"place":"Stavanger, Norway","lon":5.733589,"lat":58.970963},{"place":"Davos, Switzerland","lon":9.820619,"lat":46.793144},{"place":"Umeå, Sweden","lon":20.2635,"lat":63.825768},{"place":"Gradignan, France","lon":-0.614274,"lat":44.77273},{"place":"Biel, Switzerland","lon":7.246737,"lat":47.137917},{"place":"Napoli, Italy","lon":14.253269,"lat":40.84603},{"place":"Logoisk, Belarus","lon":27.84413,"lat":54.200268},{"place":"PALMANOVA (MALLORCA), Spain","lon":2.983333,"lat":39.616667},{"place":"MAGALUF (MALLORCA), Spain","lon":2.983333,"lat":39.616667},{"place":"TORELLÓ (BARCELONA), Spain","lon":2.262138,"lat":42.04606},{"place":"UMAG, Croatia","lon":13.518677,"lat":45.433407},{"place":"Timisoara, Romania","lon":21.228022,"lat":45.757526},{"place":"Luxembourg, Luxembourg","lon":6.129678,"lat":49.61152},{"place":"Sintra, Portugal","lon":-9.38959,"lat":38.795944},{"place":"TBA, Ukraine","lon":31.320283,"lat":49.322794},{"place":"BENIDORM (ALICANTE), Spain","lon":-0.443477,"lat":38.417986},{"place":"Cornellá de LLobregat (Barcelona), Spain","lon":2.075202,"lat":41.367711},{"place":"Steinfort, Luxembourg","lon":5.913041,"lat":49.659233},{"place":"Aylesbury, Great Britain","lon":-0.812757,"lat":51.81684},{"place":"EL PRAT DE LLOBREGAT (BARCELONA), Spain","lon":2.0943,"lat":41.325485},{"place":"CASERTA, Italy","lon":14.331337,"lat":41.072727},{"place":"Warszawa, Poland","lon":21.016317,"lat":52.23072},{"place":"Radenci, Slovenia","lon":16.039985,"lat":46.640903},{"place":"Regensburg, Germany","lon":12.095035,"lat":49.02017},{"place":"SANXENXO (PONTEVEDRA), Spain","lon":-8.806865,"lat":42.40019},{"place":"Vandans, Austria","lon":9.864575,"lat":47.096302},{"place":"SARAJEVO, Bosnia and Herzegovina","lon":18.38529,"lat":43.85251},{"place":"Zell, Germany","lon":7.181741,"lat":50.025856},{"place":"T.B.A., Greece","lon":-77.69362,"lat":43.209473},{"place":"Renningen / Rutesheim, Germany","lon":8.946124,"lat":48.808277},{"place":"Bonnevoie_Luxembourg, Luxembourg","lon":6.146555,"lat":49.596581},{"place":"Bankia, Bulgaria","lon":23.144283,"lat":42.707584},{"place":"ISTANBUL, Turkiye","lon":28.966219,"lat":41.009198},{"place":"Krasnogorsk, Russia","lon":37.338886,"lat":55.821426},{"place":"Pisek, Czechia","lon":14.149767,"lat":49.308533},{"place":"Palanga, Lithuania","lon":21.068266,"lat":55.922982},{"place":"Haid, Austria","lon":12.818767,"lat":47.408567},{"place":"Eching, Germany","lon":11.621579,"lat":48.2978},{"place":"Kaliningrad, Russia","lon":20.501762,"lat":54.718754},{"place":"NIVELLES, Belgium","lon":4.323585,"lat":50.597689},{"place":"SARROLA CARCOPINO,","lon":8.842432,"lat":42.02823},{"place":"ALGHERO,","lon":8.315432,"lat":40.558697},{"place":"Uherske Hradiste, Czechia","lon":17.461044,"lat":49.06881},{"place":"Sliven, Bulgaria","lon":26.317656,"lat":42.680508},{"place":"Koblenz, Germany","lon":7.594565,"lat":50.353121},{"place":"Granville,","lon":-82.52017,"lat":40.067955},{"place":"Cork, Ireland","lon":-8.465467,"lat":51.897077},{"place":"Ulm, Germany","lon":9.993669,"lat":48.39908},{"place":"Hasselt, Belgium","lon":5.337804,"lat":50.930374},{"place":"Viljandi, Estonia","lon":25.587555,"lat":58.363575},{"place":"Krems, Austria","lon":15.60058,"lat":48.41126},{"place":"Izmir,","lon":27.137737,"lat":38.4242},{"place":"Maglie,","lon":18.299974,"lat":40.12079},{"place":"Plzen,","lon":13.37643,"lat":49.746517},{"place":"Ankara,","lon":32.854183,"lat":39.920856},{"place":"Bari,","lon":16.869337,"lat":41.126244},{"place":"Queenswood, Great Britain","lon":-1.308432,"lat":50.902952},{"place":"La Rochelle,","lon":-1.153455,"lat":46.15778},{"place":"ITA,","lon":12.646361,"lat":42.504154},{"place":"Prievidza, Slovakia","lon":18.621008,"lat":48.772762},{"place":"Cheliabinsk, Russia","lon":61.400738,"lat":55.162777},{"place":"Giroc, Romania","lon":21.23362,"lat":45.700294},{"place":"Bournemouth, Great Britain","lon":-1.87989,"lat":50.720127},{"place":"Waiblingen, Germany","lon":9.316218,"lat":48.832059},{"place":"BRUSSELS, Belgium","lon":4.35121,"lat":50.8551},{"place":"Kufstein, Austria","lon":12.170537,"lat":47.583736},{"place":"Cologne, Germany","lon":6.960162,"lat":50.93804},{"place":"Capriolo,","lon":9.933364,"lat":45.63728},{"place":"timisoara,","lon":21.228022,"lat":45.757526},{"place":"ITALY,","lon":12.646361,"lat":42.504154},{"place":"Groningen, Netherlands","lon":6.569525,"lat":53.218414},{"place":"Ivanovo, Russia","lon":40.97872,"lat":56.99566},{"place":"STOBREC, Croatia","lon":16.522401,"lat":43.502427},{"place":"Pilzen, Czechia","lon":13.37643,"lat":49.746517},{"place":"Moscow, Russia","lon":37.617494,"lat":55.750446},{"place":"Delmenhorst, Germany","lon":8.629511,"lat":53.04851},{"place":"Oberentfelden, Switzerland","lon":8.046597,"lat":47.355614},{"place":"Dublin 4, Ireland","lon":-6.403773,"lat":53.993815},{"place":"RUEIL-MALMAISON, France","lon":2.181652,"lat":48.877567},{"place":"Michalovce, Slovakia","lon":21.916588,"lat":48.756092},{"place":"KORDIN, Malta","lon":16.985388,"lat":-24.842038},{"place":"Lubertsy, Russia","lon":37.88872,"lat":55.681004},{"place":"Jablonec nad Nisou, Czechia","lon":15.171606,"lat":50.72383},{"place":"Avilés, Spain","lon":-5.922247,"lat":43.557236},{"place":"Wolfsburg, Germany","lon":10.787405,"lat":52.42324},{"place":"Brescia, Italy","lon":10.219558,"lat":45.539703},{"place":"Bitola, North Macedonia","lon":21.330251,"lat":41.031601},{"place":"Leeuwarden, Netherlands","lon":5.792342,"lat":53.199776},{"place":"Fürstenfeld, Austria","lon":16.077534,"lat":47.050114},{"place":"ANKARA, Turkiye","lon":32.854183,"lat":39.920856},{"place":"Sofia, Bulgaria","lon":23.320782,"lat":42.69489},{"place":"Birmingham, Great Britain","lon":-1.902691,"lat":52.479699},{"place":"Bals, Romania","lon":24.102003,"lat":44.350567},{"place":"Marianske Lazne, Czechia","lon":12.703638,"lat":49.97432},{"place":"OTOCEC, Slovenia","lon":15.222154,"lat":45.833633},{"place":"Haskovo, Bulgaria","lon":25.555182,"lat":41.931896},{"place":"PORTO SAN GIORGIO, Italy","lon":13.795391,"lat":43.179108},{"place":"Meppel, Netherlands","lon":6.188356,"lat":52.699142},{"place":"Bergheim, Austria","lon":13.02258,"lat":47.84076},{"place":"Porto, Portugal","lon":-8.611286,"lat":41.14789},{"place":"Edinburgh, Great Britain","lon":-3.188375,"lat":55.953346},{"place":"PAOLA, Malta","lon":14.507375,"lat":35.871799},{"place":"Loano,","lon":8.261366,"lat":44.128265},{"place":"Magalluf,","lon":2.535537,"lat":39.50881},{"place":"Kranj, Slovenia","lon":14.35495,"lat":46.243264},{"place":"Svilengrad, Bulgaria","lon":26.200602,"lat":41.766037},{"place":"Liepaja, Latvia","lon":21.00709,"lat":56.504844},{"place":"TRIESTE, Italy","lon":13.772238,"lat":45.650043},{"place":"Yerevan, Armenia","lon":44.512617,"lat":40.177625},{"place":"Velp, Netherlands","lon":5.97085,"lat":51.995865},{"place":"Balearic Islands,","lon":2.650075,"lat":39.569582},{"place":"Italy,","lon":12.646361,"lat":42.504154},{"place":"Cluj Napoca,","lon":23.589823,"lat":46.770878},{"place":"Rakovnik,","lon":13.730732,"lat":50.104282},{"place":"Sassari,","lon":8.562282,"lat":40.726288},{"place":"Heverlee, Belgium","lon":4.694141,"lat":50.86464},{"place":"17200,","lon":27.243628,"lat":40.226511},{"place":"Mamaia, Romania","lon":28.624863,"lat":44.234924},{"place":"Rungsted Kyst, Denmark","lon":12.525147,"lat":55.88285},{"place":"PARIS, France","lon":2.348392,"lat":48.853495},{"place":"Százhalombatta, Hungary","lon":18.908768,"lat":47.317604},{"place":"MALI LOSINJ, Croatia","lon":14.468747,"lat":44.53249},{"place":"PADOVA, Italy","lon":11.876048,"lat":45.40779},{"place":"PRIJEDOR, Bosnia and Herzegovina","lon":16.707233,"lat":44.978165},{"place":"Birkerød, Denmark","lon":12.43122,"lat":55.840675},{"place":"LE PONTET, France","lon":4.858318,"lat":43.962116},{"place":"Riga, Latvia","lon":24.105185,"lat":56.949398},{"place":"MOSTAR, Bosnia and Herzegovina","lon":17.813868,"lat":43.33694},{"place":"Cacak, Serbia","lon":20.35039,"lat":43.891285},{"place":"Portimão, Portugal","lon":-8.536365,"lat":37.13733},{"place":"CREMA, Italy","lon":9.687603,"lat":45.36304},{"place":"Ostroh, Ukraine","lon":26.523914,"lat":50.328014},{"place":"Vilnius, Lithuania","lon":25.282911,"lat":54.687046},{"place":"Szczecin, Poland","lon":14.544545,"lat":53.430527},{"place":"TUZLA, Bosnia and Herzegovina","lon":18.676016,"lat":44.538532},{"place":"Reykjav'ik, Iceland","lon":-21.9436,"lat":64.145847},{"place":"MILANO, Italy","lon":9.188558,"lat":45.463945},{"place":"Sandefjord, Norway","lon":10.22401,"lat":59.132095},{"place":"Pécs, Hungary","lon":18.22842,"lat":46.075485},{"place":"Reykjavík-Kópavogur, Iceland","lon":-21.9436,"lat":64.145847},{"place":"KOPER, Slovenia","lon":13.730478,"lat":45.547986},{"place":"CORREGGIO, Italy","lon":10.780496,"lat":44.77152},{"place":"Hradek nad Nisou, Czechia","lon":14.84366,"lat":50.85404},{"place":"Balashiha, Russia","lon":37.934494,"lat":55.797325},{"place":"Ramle, Israel","lon":34.874813,"lat":31.926683},{"place":"MONTECATINI TERME, Italy","lon":10.770852,"lat":43.883106},{"place":"Höllviken, Sweden","lon":12.964968,"lat":55.41352},{"place":"Radom, Poland","lon":21.153679,"lat":51.401176},{"place":"Chisinau, Moldova","lon":28.837374,"lat":47.02416},{"place":"PESCARA, Italy","lon":14.206623,"lat":42.47194},{"place":"Ra'anana, Israel","lon":34.87611,"lat":32.180256},{"place":"FOLIGNO, Italy","lon":12.703836,"lat":42.955933},{"place":"Oslo, Norway","lon":10.73897,"lat":59.91333},{"place":"Subotica, Serbia","lon":19.665573,"lat":46.10027},{"place":"Arad, Romania","lon":21.316925,"lat":46.173473},{"place":"Prokuplje, Serbia","lon":21.588497,"lat":43.23358},{"place":"Skopje, North Macedonia","lon":21.43165,"lat":41.996092},{"place":"FOGGIA, Italy","lon":15.54409,"lat":41.463028},{"place":"Bucha, Ukraine","lon":30.212479,"lat":50.54946},{"place":"SAMSUN, Turkiye","lon":36.334373,"lat":41.28771},{"place":"Piestany, Slovakia","lon":17.834412,"lat":48.589256},{"place":"Simferopol, Ukraine","lon":34.099014,"lat":44.951267},{"place":"MARIBOR, Slovenia","lon":15.645585,"lat":46.557644},{"place":"Zabrze, Poland","lon":18.78542,"lat":50.308394},{"place":"Tbilisi, Georgia","lon":44.80145,"lat":41.693459},{"place":"ZENICA, Bosnia and Herzegovina","lon":17.909204,"lat":44.19983},{"place":"NIKSIC, Montenegro","lon":18.94881,"lat":42.773939},{"place":"Dmitrov, Russia","lon":37.51555,"lat":56.346672},{"place":"LE PASSAGE D'AGEN, France","lon":0.661415,"lat":44.151277},{"place":"Lod, Israel","lon":34.89232,"lat":31.94656},{"place":"Kiev, Ukraine","lon":30.524136,"lat":50.450034},{"place":"Prague, Czechia","lon":14.422954,"lat":50.08584},{"place":"Opalenica, Poland","lon":16.41105,"lat":52.308186},{"place":"CAKOVEC, Croatia","lon":16.438461,"lat":46.38983},{"place":"Pinsk, Belarus","lon":26.106625,"lat":52.11278},{"place":"ROME, Italy","lon":12.476713,"lat":41.899986},{"place":"Baku, Azerbaijan","lon":49.832801,"lat":40.375589},{"place":"Rakovnik, Czechia","lon":13.730732,"lat":50.104282},{"place":"SOLIN, Croatia","lon":16.484774,"lat":43.54247},{"place":"Brno, Czechia","lon":16.606107,"lat":49.193878},{"place":"ADANA, Turkiye","lon":35.325283,"lat":36.98583},{"place":"Trnava, Slovakia","lon":17.585737,"lat":48.377148},{"place":"MAGALUF, Spain","lon":2.535537,"lat":39.50881},{"place":"ZAGREB, Croatia","lon":15.976789,"lat":45.813778},{"place":"Pancevo, Serbia","lon":20.641712,"lat":44.870846},{"place":"BRESSUIRE, France","lon":-0.492368,"lat":46.84005},{"place":"Gomel, Belarus","lon":31.013542,"lat":52.427044},{"place":"VINKOVCI, Croatia","lon":18.80535,"lat":45.288795},{"place":"ANTALYA, Turkiye","lon":30.70745,"lat":36.887333},{"place":"ITEUIL, France","lon":0.313093,"lat":46.485706},{"place":"Novi Sad, Serbia","lon":19.845444,"lat":45.25558},{"place":"Ponta Delgada - S. Miguel, Portugal","lon":-9.137983,"lat":38.733106},{"place":"PAVIA, Italy","lon":9.154295,"lat":45.185566},{"place":"Nottingham, Great Britain","lon":-1.149646,"lat":52.953419},{"place":"RIJEKA, Croatia","lon":14.442651,"lat":45.326084},{"place":"Maia, Portugal","lon":-8.621567,"lat":41.23288},{"place":"Jerusalem, Israel","lon":35.18679,"lat":31.773315},{"place":"Budapest, Hungary","lon":19.040359,"lat":47.497994},{"place":"MAGLIE, Italy","lon":18.299974,"lat":40.12079},{"place":"LIVORNO, Italy","lon":10.30783,"lat":43.551926},{"place":"Arad, Israel","lon":35.210297,"lat":31.257307},{"place":"London, Great Britain","lon":-0.127647,"lat":51.5073},{"place":"angra do Heroísmo - Azores, Portugal","lon":-27.21897,"lat":38.655785},{"place":"Trencianske Teplice, Slovakia","lon":18.172228,"lat":48.90904},{"place":"Antalya, Turkiye","lon":30.70745,"lat":36.887333},{"place":"Kosice, Slovakia","lon":21.256809,"lat":48.727455},{"place":"Minsk, Belarus","lon":27.561823,"lat":53.902472},{"place":"Oulu, Finland","lon":25.473366,"lat":65.01213},{"place":"Milovice - Mlada Boleslav, Czechia","lon":14.903569,"lat":50.411633},{"place":"Ashkelon, Israel","lon":34.58687,"lat":31.66548},{"place":"Helsinki, Finland","lon":24.941822,"lat":60.167507},{"place":"Nastola, Finland","lon":25.93385,"lat":60.948204},{"place":"Tallinn, Estonia","lon":24.746462,"lat":59.436745},{"place":"AURAY, France","lon":-2.984148,"lat":47.66687},{"place":"LE CHAMBON-SUR-LIGNON, France","lon":4.302439,"lat":45.06039},{"place":"Ronchin,","lon":3.076528,"lat":50.607285},{"place":"Ascoli,","lon":13.574948,"lat":42.85503},{"place":"Pruhonice,","lon":14.561335,"lat":50.001762},{"place":"Oetwil am See, Switzerland","lon":8.721687,"lat":47.27057},{"place":"Taverne, Switzerland","lon":8.931877,"lat":46.06036},{"place":"Farum, Denmark","lon":12.369069,"lat":55.812004},{"place":"Mogiliov, Belarus","lon":30.334078,"lat":53.899757},{"place":"ODOS, France","lon":0.058045,"lat":43.197514},{"place":"Vsevolozhsk, Russia","lon":30.645748,"lat":60.024197},{"place":"Narva, Estonia","lon":28.194403,"lat":59.376152},{"place":"Bolton, Great Britain","lon":-2.428225,"lat":53.578987},{"place":"Siauliai, Lithuania","lon":23.315778,"lat":55.934082},{"place":"Belgorod, Russia","lon":36.592884,"lat":50.5969},{"place":"Pribram VIII, Czechia","lon":14.003176,"lat":49.666624},{"place":"Sergiev Posad, Russia","lon":38.134335,"lat":56.311443},{"place":"Beograd, Serbia","lon":20.456897,"lat":44.817813},{"place":"Cattenom, France","lon":6.239421,"lat":49.406963},{"place":"MuĞLa, Turkiye","lon":28.364044,"lat":37.21527},{"place":"Unknown, Netherlands","lon":166.146519,"lat":-10.678292},{"place":"PortimãO, Portugal","lon":-8.536365,"lat":37.13733},{"place":"Bournemouth,, Great Britain","lon":-1.87989,"lat":50.720127},{"place":"Gurb Vic Barcelona, Spain","lon":2.252151,"lat":41.932482},{"place":"Hanko, Finland","lon":22.969276,"lat":59.82313},{"place":"Bielsko-Biala, Poland","lon":19.046837,"lat":49.823215},{"place":"Tbc, Bulgaria","lon":-44.034457,"lat":-20.022975},{"place":"Leiria, Portugal","lon":-8.808616,"lat":39.74443},{"place":"Sobota/Rokietnica, Poland","lon":16.742353,"lat":52.512547},{"place":"Tsagkhadzor, Armenia","lon":44.720157,"lat":40.533547},{"place":"Groddzisk Mazowiecki, Poland","lon":20.621374,"lat":52.105446},{"place":"23332, Sweden","lon":13.233029,"lat":55.511878},{"place":"Břeclav, Czechia","lon":16.881907,"lat":48.759174}]