[
  {"place":"Portoroz, Slovenia","lon":13.59160511469129,"lat":45.51492619145477},
  {"place":"Svyatopetrivske, Ukraine","lon":30.316305553178903,"lat":50.39108718459208},
  {"place":"Svyatopetrivske, Ukraine","lon":30.316305553178903,"lat":50.39108718459208},
  {"place":"Portorož, Slovenia","lon":13.59160511469129,"lat":45.51492619145477},
  {"place":"Schachenstrasse 15, Switzerland","lon":8.728489273767787,"lat":47.27356773556013},
  {"place":"karsıyaka, Turkiye","lon":27.15260411878168,"lat":38.516848736804455},
  {"place":"Magalluf","lon":2.53269088930882,"lat":39.506556836867574}
]